a_code,a_name,a_city,country_key,a_iata,a_icao,lat,long,currency_code,TO_EUR,FROM_EUR
2048,Herat,Herat,afghanistan,HEA,OAHR,34.210017,62.2283,AFN,0.01644,61.0517
2049,Jalalabad,Jalalabad,afghanistan,JAA,OAJL,34.399842,70.498625,AFN,0.01644,61.0517
2050,Kabul Intl,Kabul,afghanistan,KBL,OAKB,34.565853000000004,69.212328,AFN,0.01644,61.0517
2051,Kandahar,Kandahar,afghanistan,KDH,OAKN,31.505755999999998,65.847822,AFN,0.01644,61.0517
2052,Maimana,Maimama,afghanistan,MMZ,OAMN,35.930789000000004,64.760917,AFN,0.01644,61.0517
2053,Mazar I Sharif,Mazar-i-sharif,afghanistan,MZR,OAMS,36.706914000000005,67.209678,AFN,0.01644,61.0517
2056,Konduz,Kunduz,afghanistan,UND,OAUZ,36.665110999999996,68.910833,AFN,0.01644,61.0517
5922,Faizabad Airport,Faizabad,afghanistan,FBD,OAFZ,37.1211,70.5181,AFN,0.01644,61.0517
7036,Bagram AFB,Kabul,afghanistan,BPM,OAIX,34.5646,69.1554,AFN,0.01644,61.0517
7499,Tarin Kowt Airport,Tarin Kowt,afghanistan,TII,OATN,32.605278000000006,65.86416700000001,AFN,0.01644,61.0517
7500,Zaranj Airport,Zaranj,afghanistan,ZAJ,OAZJ,30.969167,61.866944,AFN,0.01644,61.0517
7501,Chaghcharan Airport,Chaghcharan,afghanistan,CCN,OACC,34.526666999999996,65.27166700000001,AFN,0.01644,61.0517
8127,FOB Salerno,Khost,afghanistan,KHT,OAKS,33.3334,69.952,AFN,0.01644,61.0517
8146,Sharona,Sharona,afghanistan,AZ3,OASA,33.1277215,68.8369847,AFN,0.01644,61.0517
8773,Bost Airport,Lashkar Gah,afghanistan,BST,OABT,31.558889,64.36416700000001,AFN,0.01644,61.0517
8825,Bamyan Airport,Bamyan,afghanistan,BIN,OABN,34.816666999999995,67.81666700000001,AFN,0.01644,61.0517
1190,Tirana Rinas,Tirana,albania,TIA,LATI,41.414742,19.720561,ALL,0.007237,143.208
209,Soummam,Bejaja,algeria,BJA,DAAE,36.711997,5.069922,DZD,0.009789,103.169
210,Houari Boumediene,Algier,algeria,ALG,DAAG,36.691014,3.215408,DZD,0.009789,103.169
211,Tiska,Djanet,algeria,DJG,DAAJ,24.292767,9.452444,DZD,0.009789,103.169
212,Boufarik,Boufarik,algeria,QFD,DAAK,36.545834,2.876111,DZD,0.009789,103.169
214,Illizi Takhamalt,Illizi,algeria,VVZ,DAAP,26.723536,8.622653,DZD,0.009789,103.169
216,Tamanrasset,Tamanrasset,algeria,TMR,DAAT,22.811460999999998,5.451075,DZD,0.009789,103.169
217,Jijel,Jijel,algeria,GJL,DAAV,36.795136,5.873608,DZD,0.009789,103.169
220,Annaba,Annaba,algeria,AAE,DABB,36.822225,7.8091669999999995,DZD,0.009789,103.169
221,Mohamed Boudiaf Intl,Constantine,algeria,CZL,DABC,36.276028000000004,6.620386,DZD,0.009789,103.169
222,Cheikh Larbi Tebessi,Tebessa,algeria,TEE,DABS,35.431611,8.120716999999999,DZD,0.009789,103.169
224,Hassi R Mel,Tilrempt,algeria,HRM,DAFH,32.930431,3.3115419999999998,DZD,0.009789,103.169
225,Bou Chekif,Tiaret,algeria,TID,DAOB,35.341136,1.463147,DZD,0.009789,103.169
227,Tindouf,Tindouf,algeria,TIN,DAOF,27.700371999999998,-8.167103,DZD,0.009789,103.169
228,Ech Cheliff,Ech-cheliff,algeria,QAS,DAOI,36.212658000000005,1.331775,DZD,0.009789,103.169
229,Tafaraoui,Oran,algeria,TAF,DAOL,35.542444,-0.532278,DZD,0.009789,103.169
230,Zenata,Tlemcen,algeria,TLM,DAON,35.016667,-1.45,DZD,0.009789,103.169
231,Es Senia,Oran,algeria,ORN,DAOO,35.623858,-0.621183,DZD,0.009789,103.169
233,Ghriss,Ghriss,algeria,MUW,DAOV,35.207725,0.147142,DZD,0.009789,103.169
234,Touat Cheikh Sidi Mohamed Belkebir,Adrar,algeria,AZR,DAUA,27.837589,-0.186414,DZD,0.009789,103.169
235,Biskra,Biskra,algeria,BSK,DAUB,34.793289,5.738231,DZD,0.009789,103.169
236,El Golea,El Golea,algeria,ELG,DAUE,30.571294,2.859586,DZD,0.009789,103.169
237,Noumerat,Ghardaia,algeria,GHA,DAUG,32.384106,3.794114,DZD,0.009789,103.169
238,Oued Irara,Hassi Messaoud,algeria,HME,DAUH,31.672971999999998,6.1404440000000005,DZD,0.009789,103.169
239,In Salah,In Salah,algeria,INZ,DAUI,27.251022,2.5120169999999997,DZD,0.009789,103.169
240,Sidi Mahdi,Touggourt,algeria,TGR,DAUK,33.067803000000005,6.088672,DZD,0.009789,103.169
241,Laghouat,Laghouat,algeria,LOO,DAUL,33.764383,2.928344,DZD,0.009789,103.169
242,Timimoun,Timimoun,algeria,TMX,DAUT,29.237119,0.276033,DZD,0.009789,103.169
243,Ouargla,Ouargla,algeria,OGX,DAUU,31.917223,5.412778,DZD,0.009789,103.169
244,In Amenas,Zarzaitine,algeria,IAM,DAUZ,28.05155,9.642911,DZD,0.009789,103.169
5555,Guemar Airport,Guemar,algeria,ELU,DAUO,33.5114,6.776789999999999,DZD,0.009789,103.169
5554,Bordj Badji Mokhtar Airport,Bordj Badji Mokhtar,algeria,BMW,DATM,21.375,0.923889,DZD,0.009789,103.169
5553,Béchar Boudghene Ben Ali Lotfi Airport,Béchar,algeria,CBH,DAOR,31.6457,-2.26986,DZD,0.009789,103.169
5552,Batna Airport,Batna,algeria,BLJ,DABT,35.752106,6.308589,DZD,0.009789,103.169
6492,Ain Arnat Airport,Setif,algeria,QSF,DAAS,36.1781,5.32449,DZD,0.009789,103.169
7408,Tsletsi Airport,Djelfa,algeria,QDJ,DAFI,34.6657,3.3510000000000004,DZD,0.009789,103.169
1970,Pago Pago Intl,Pago Pago,american samoa,PPG,NSTU,-14.331,-170.7105,USD,0.9488,1.0541
7627,Fitiuta Airport,Fiti\\'uta,american samoa,FTI,NSFQ,-14.216110999999998,-169.42361100000002,USD,0.9488,1.0541
7628,Ofu Airport,Ofu,american samoa,OFU,\N,-14.184444000000001,-169.67,USD,0.9488,1.0541
944,Mbanza Congo,M'banza-congo,angola,SSY,FNBC,-6.269897,14.247025,AOA,0.008944,112.947
945,Benguela,Benguela,angola,BUG,FNBG,-12.609025,13.403711,AOA,0.008944,112.947
946,Cabinda,Cabinda,angola,CAB,FNCA,-5.596992,12.188353,AOA,0.008944,112.947
948,Huambo,Huambo,angola,NOV,FNHU,-12.808878,15.760547,AOA,0.008944,112.947
949,Kuito,Kuito,angola,SVP,FNKU,-12.404633,16.947414000000002,AOA,0.008944,112.947
951,Luanda 4 De Fevereiro,Luanda,angola,LAD,FNLU,-8.858375,13.231178,AOA,0.008944,112.947
952,Malanje,Malanje,angola,MEG,FNMA,-9.525086,16.312406,AOA,0.008944,112.947
953,Menongue,Menongue,angola,SPP,FNME,-14.657582999999999,17.719832999999998,AOA,0.008944,112.947
955,Negage,Negage,angola,GXG,FNNG,-7.754506,15.287728,AOA,0.008944,112.947
956,Porto Amboim,Porto Amboim,angola,PBN,FNPA,-10.721956,13.765528,AOA,0.008944,112.947
957,Saurimo,Saurimo,angola,VHC,FNSA,-9.689067,20.431875,AOA,0.008944,112.947
958,Soyo,Soyo,angola,SZA,FNSO,-6.1410860000000005,12.371764,AOA,0.008944,112.947
959,Lubango,Lubango,angola,SDD,FNUB,-14.924732999999998,13.575022,AOA,0.008944,112.947
960,Luena,Luena,angola,LUO,FNUE,-11.768086,19.897672,AOA,0.008944,112.947
961,Uige,Uige,angola,UGO,FNUG,-7.603067,15.027822,AOA,0.008944,112.947
962,Xangongo,Xangongo,angola,XGN,FNXA,-16.755417,14.965344,AOA,0.008944,112.947
5633,Namibe Airport,Mocamedes,angola,MSZ,FNMO,-15.261222,12.146756,AOA,0.008944,112.947
5632,Ondjiva Pereira Airport,Ondjiva,angola,VPE,FNGI,-17.043464,15.683822,AOA,0.008944,112.947
5631,Dundo Airport,Dundo,angola,DUE,FNDU,-7.4008899999999995,20.8185,AOA,0.008944,112.947
5630,Catumbela Airport,Catumbela,angola,CBT,FNCT,-12.4792,13.4869,AOA,0.008944,112.947
7411,Lucapa Airport,Lucapa,angola,LBZ,FNLK,-8.443056,20.732222,AOA,0.008944,112.947
7412,Kapanda Airport,Kapanda,angola,KNP,FNCP,-9.771944,15.456110999999998,AOA,0.008944,112.947
2900,Wallblake,The Valley,anguilla,AXA,TQPF,18.204833999999998,-63.055083999999994,XCD,0.353,2.8638
2874,V C Bird Intl,Antigua,antigua and barbuda,ANU,TAPA,17.136749,-61.792667,XCD,0.353,2.8638
6074,Codrington Airport,Codrington,antigua and barbuda,BBQ,TAPH,17.6358,-61.8286,XCD,0.353,2.8638
6869,Aeropuerto de Rafaela,Rafaela,argentina,RAF,\N,-31.282071999999996,-61.501594,ARS,0.1081,9.2657
2436,Comodoro Pierrestegui,Concordia,argentina,COC,SAAC,-31.296944,-57.99663100000001,ARS,0.1081,9.2657
2437,Gualeguaychu,Gualeguaychu,argentina,GHU,SAAG,-33.010278,-58.61305600000001,ARS,0.1081,9.2657
2439,General Urquiza,Parana,argentina,PRA,SAAP,-31.794778000000004,-60.480361,ARS,0.1081,9.2657
2440,Rosario,Rosario,argentina,ROS,SAAR,-32.903611,-60.785,ARS,0.1081,9.2657
2441,Sauce Viejo,Santa Fe,argentina,SFN,SAAV,-31.711665999999997,-60.811668000000004,ARS,0.1081,9.2657
2442,Aeroparque Jorge Newbery,Buenos Aires,argentina,AEP,SABE,-34.559175,-58.415606000000004,ARS,0.1081,9.2657
2443,Ambrosio L V Taravella,Cordoba,argentina,COR,SACO,-31.323619,-64.207953,ARS,0.1081,9.2657
2447,La Plata,La Plata,argentina,LPG,SADL,-34.972221999999995,-57.894693999999994,ARS,0.1081,9.2657
2452,El Plumerillo,Mendoza,argentina,MDZ,SAME,-32.831717,-68.792856,ARS,0.1081,9.2657
2453,Malargue,Malargue,argentina,LGS,SAMM,-35.493596999999994,-69.574267,ARS,0.1081,9.2657
2454,San Rafael,San Rafael,argentina,AFA,SAMR,-34.588314000000004,-68.40385400000001,ARS,0.1081,9.2657
2455,Catamarca,Catamarca,argentina,CTC,SANC,-28.593214,-65.750925,ARS,0.1081,9.2657
2456,Santiago Del Estero,Santiago Del Estero,argentina,SDE,SANE,-27.765617,-64.31012199999999,ARS,0.1081,9.2657
2458,La Rioja,La Rioja,argentina,IRJ,SANL,-29.381636,-66.795839,ARS,0.1081,9.2657
2460,Teniente Benjamin Matienzo,Tucuman,argentina,TUC,SANT,-26.840861,-65.10494399999999,ARS,0.1081,9.2657
2461,San Juan,San Julian,argentina,UAQ,SANU,-31.571471999999996,-68.418194,ARS,0.1081,9.2657
2462,Rio Cuarto Area De Material,Rio Cuarto,argentina,RCU,SAOC,-33.085128000000005,-64.261314,ARS,0.1081,9.2657
2463,Villa Dolores,Villa Dolores,argentina,VDR,SAOD,-31.945183,-65.146283,ARS,0.1081,9.2657
2467,San Luis,San Luis,argentina,LUQ,SAOU,-33.273192,-66.356422,ARS,0.1081,9.2657
2468,Corrientes,Corrientes,argentina,CNQ,SARC,-27.445503000000002,-58.761864,ARS,0.1081,9.2657
2469,Resistencia,Resistencia,argentina,RES,SARE,-27.449986,-59.056125,ARS,0.1081,9.2657
2470,Formosa,Formosa,argentina,FMA,SARF,-26.212722,-58.228111,ARS,0.1081,9.2657
2471,Cataratas Del Iguazu,Iguazu Falls,argentina,IGR,SARI,-25.737281,-54.47344399999999,ARS,0.1081,9.2657
2472,Paso De Los Libres,Paso De Los Libres,argentina,AOL,SARL,-29.689425,-57.152078,ARS,0.1081,9.2657
2474,Posadas,Posadas,argentina,PSS,SARP,-27.385839,-55.970728,ARS,0.1081,9.2657
2476,Salta,Salta,argentina,SLA,SASA,-24.855978,-65.48616899999999,ARS,0.1081,9.2657
2477,Jujuy,Jujuy,argentina,JUJ,SASJ,-24.392778,-65.097778,ARS,0.1081,9.2657
2478,Oran,Oran,argentina,ORA,SASO,-23.152779000000002,-64.32916999999999,ARS,0.1081,9.2657
2486,El Bolson,El Bolson,argentina,EHL,SAVB,-41.943189000000004,-71.532289,ARS,0.1081,9.2657
2487,Comodoro Rivadavia,Comodoro Rivadavia,argentina,CRD,SAVC,-45.785346999999994,-67.465508,ARS,0.1081,9.2657
2488,Esquel,Esquel,argentina,EQS,SAVE,-42.90795,-71.139472,ARS,0.1081,9.2657
2490,Almirante Zar,Trelew,argentina,REL,SAVT,-43.2105,-65.270319,ARS,0.1081,9.2657
2491,Gobernador Castello,Viedma,argentina,VDM,SAVV,-40.869222,-63.000389,ARS,0.1081,9.2657
2492,El Tehuelche,Puerto Madryn,argentina,PMY,SAVY,-42.759161,-65.102725,ARS,0.1081,9.2657
2494,Puerto Deseado,Puerto Deseado,argentina,PUD,SAWD,-47.735292,-65.904097,ARS,0.1081,9.2657
2495,Rio Grande,Rio Grande,argentina,RGA,SAWE,-53.777667,-67.74938900000001,ARS,0.1081,9.2657
2496,Rio Gallegos,Rio Gallegos,argentina,RGL,SAWG,-51.608875,-69.312636,ARS,0.1081,9.2657
2497,Ushuaia Malvinas Argentinas,Ushuaia,argentina,USH,SAWH,-54.843278000000005,-68.29575,ARS,0.1081,9.2657
2498,San Julian,San Julian,argentina,ULA,SAWJ,-49.306775,-67.802589,ARS,0.1081,9.2657
2499,Perito Moreno,Perito Moreno,argentina,PMQ,SAWP,-46.537911,-70.978689,ARS,0.1081,9.2657
2500,Santa Cruz,Santa Cruz,argentina,RZA,SAWU,-50.01655,-68.579197,ARS,0.1081,9.2657
2501,Comandante Espora,Bahia Blanca,argentina,BHI,SAZB,-38.724967,-62.16931700000001,ARS,0.1081,9.2657
2508,Mar Del Plata,Mar Del Plata,argentina,MDQ,SAZM,-37.934166999999995,-57.573333,ARS,0.1081,9.2657
2509,Presidente Peron,Neuquen,argentina,NQN,SAZN,-38.949,-68.155711,ARS,0.1081,9.2657
2512,Santa Rosa,Santa Rosa,argentina,RSA,SAZR,-36.588322,-64.275694,ARS,0.1081,9.2657
2513,San Carlos De Bariloche,San Carlos De Bariloche,argentina,BRC,SAZS,-41.151171999999995,-71.157542,ARS,0.1081,9.2657
2514,Tandil,Tandil,argentina,TDL,SAZT,-37.237392,-59.227922,ARS,0.1081,9.2657
2515,Villa Gesell,Villa Gesell,argentina,VLG,SAZV,-37.235408,-57.029239000000004,ARS,0.1081,9.2657
2517,Aviador C Campos,San Martin Des Andes,argentina,CPC,SAZY,-40.075383,-71.137294,ARS,0.1081,9.2657
3988,Ministro Pistarini,Buenos Aires,argentina,EZE,SAEZ,-34.822222,-58.535833,ARS,0.1081,9.2657
4061,El Calafate,El Calafate,argentina,FTE,SAWC,-50.280322,-72.05310300000001,ARS,0.1081,9.2657
6032,Santa Teresita Airport,Santa Teresita,argentina,SST,SAZL,-36.542317,-56.721756000000006,ARS,0.1081,9.2657
6031,Gobernador Gregores Airport,Gobernador Gregores,argentina,GGS,SAWR,-48.7831,-70.15,ARS,0.1081,9.2657
6029,Antoine De St Exupery Airport,San Antonio Oeste,argentina,OES,SAVN,-40.7512,-65.0343,ARS,0.1081,9.2657
6028,Las Heras Airport,Las Heras,argentina,LHS,SAVH,-46.533056,-68.951111,ARS,0.1081,9.2657
6027,General Enrique Mosconi Airport,Tartagal,argentina,TTG,SAST,-22.619167,-63.793189,ARS,0.1081,9.2657
6033,Necochea Airport,Necochea,argentina,NEC,SAZO,-38.483056,-58.817221999999994,ARS,0.1081,9.2657
6030,Lago Argentino Airport,El Calafate,argentina,ING,SAWA,-50.3361,-72.2486,ARS,0.1081,9.2657
7221,ZAPALA,ZAPALA,argentina,APZ,SAHZ,-38.9755,-70.11358100000001,ARS,0.1081,9.2657
7222,Rincon de los Sauces,Rincon de los Sauces,argentina,RDS,\N,-37.390617,-68.904211,ARS,0.1081,9.2657
7223,Colonia Sarmiento,Colonia Sarmiento,argentina,OLN,\N,-45.6,-69.083333,ARS,0.1081,9.2657
7225,Rio Turbio,Rio Turbio,argentina,RYO,\N,-51.533333,-72.3,ARS,0.1081,9.2657
7227,Caleta Olivia,Caleta Olivia,argentina,CVI,\N,-46.4333,-67.5333,ARS,0.1081,9.2657
7229,Sierra Grande,Sierra Grande,argentina,SGV,SAVS,-41.592,-65.34100000000001,ARS,0.1081,9.2657
7230,Ingeniero Jacobacci,Ingeniero Jacobacci,argentina,IGB,SAVJ,-41.3,-69.5833,ARS,0.1081,9.2657
7232,El Chalten,El Chalten,argentina,ELX,\N,-49.328889000000004,-72.93,ARS,0.1081,9.2657
7308,Aeropuerto Internacional Valle del Conlara,Merlo,argentina,RLO,\N,-32.349803,-65.179932,ARS,0.1081,9.2657
7311,Alto Rio Senguer Airport,Alto Rio Senguer,argentina,ARR,SAVR,-45.016667,-70.81666700000001,ARS,0.1081,9.2657
7312,Jose de San Martin Airport,Jose de San Martin,argentina,JSM,SAWS,-44.016667,-70.466667,ARS,0.1081,9.2657
8852,Gilberto Lavaque,Cafayate,argentina,CFX,SASC,-26.06245,-65.93209499999999,ARS,0.1081,9.2657
8914,Termal,Rio Hondo,argentina,RHD,SANH,-27.509946000000003,-64.936666,ARS,0.1081,9.2657
3964,Zvartnots,Yerevan,armenia,EVN,UDYZ,40.147275,44.395881,AMD,0.0019809999999999997,505.005
3965,Gyumri,Gyumri,armenia,LWN,UDSG,40.750369,43.859342,AMD,0.0019809999999999997,505.005
2895,Reina Beatrix Intl,Oranjestad,aruba,AUA,TNCA,12.501389,-70.015221,AWG,0.5331,1.8973
6809,Maitland Airport,Maitland,australia,MTL,YMND,-32.7033,151.488,AUD,0.7253,1.3791
6808,Mudgee Airport,Mudgee,australia,DGE,YMDG,-32.5625,149.611,AUD,0.7253,1.3791
6870,Whitsunday Airstrip,Airlie Beach,australia,WSY,YWHI,-20.276,148.755,AUD,0.7253,1.3791
6807,Scone Airport,Scone,australia,NSO,YSCO,-32.0372,150.832,AUD,0.7253,1.3791
6806,Cessnock Airport,Cessnock,australia,CES,YCNK,-32.7875,151.342,AUD,0.7253,1.3791
6829,Orchid Beach,Fraser Island,australia,OKB,KOKB,-24.95841,153.3145,AUD,0.7253,1.3791
3318,Bamaga Injinoo,Amberley,australia,ABM,YBAM,-10.950833,142.459444,AUD,0.7253,1.3791
3319,Alice Springs,Alice Springs,australia,ASP,YBAS,-23.806667,133.902222,AUD,0.7253,1.3791
3320,Brisbane Intl,Brisbane,australia,BNE,YBBN,-27.384166999999998,153.1175,AUD,0.7253,1.3791
3321,Gold Coast,Coolangatta,australia,OOL,YBCG,-28.164444,153.504722,AUD,0.7253,1.3791
3322,Cairns Intl,Cairns,australia,CNS,YBCS,-16.885832999999998,145.755278,AUD,0.7253,1.3791
3323,Charleville,Charlieville,australia,CTL,YBCV,-26.413334000000003,146.2625,AUD,0.7253,1.3791
3324,Mount Isa,Mount Isa,australia,ISA,YBMA,-20.663889,139.48861100000002,AUD,0.7253,1.3791
3325,Sunshine Coast,Maroochydore,australia,MCY,YBMC,-26.603333000000003,153.091111,AUD,0.7253,1.3791
3326,Mackay,Mackay,australia,MKY,YBMK,-21.171667000000003,149.179722,AUD,0.7253,1.3791
3328,Proserpine Whitsunday Coast,Prosserpine,australia,PPP,YBPN,-20.495,148.552222,AUD,0.7253,1.3791
3329,Rockhampton,Rockhampton,australia,ROK,YBRK,-23.381944,150.475278,AUD,0.7253,1.3791
3330,Townsville,Townsville,australia,TSV,YBTL,-19.2525,146.765278,AUD,0.7253,1.3791
3331,Weipa,Weipa,australia,WEI,YBWP,-12.678611,141.925278,AUD,0.7253,1.3791
3332,Avalon,Avalon,australia,AVV,YMAV,-38.039444,144.46944399999998,AUD,0.7253,1.3791
3333,Albury,Albury,australia,ABX,YMAY,-36.067778000000004,146.958056,AUD,0.7253,1.3791
3334,Melbourne Essendon,Melbourne,australia,MEB,YMEN,-37.728056,144.901944,AUD,0.7253,1.3791
3336,Hobart,Hobart,australia,HBA,YMHB,-42.836110999999995,147.510278,AUD,0.7253,1.3791
3337,Launceston,Launceston,australia,LST,YMLT,-41.545278,147.214167,AUD,0.7253,1.3791
3338,Melbourne Moorabbin,Melbourne,australia,MBW,YMMB,-37.975833,145.10222199999998,AUD,0.7253,1.3791
3339,Melbourne Intl,Melbourne,australia,MEL,YMML,-37.673333,144.843333,AUD,0.7253,1.3791
3341,Adelaide Intl,Adelaide,australia,ADL,YPAD,-34.945,138.53055600000002,AUD,0.7253,1.3791
3344,Perth Jandakot,Perth,australia,JAD,YPJT,-32.0975,115.881111,AUD,0.7253,1.3791
3345,Karratha,Karratha,australia,KTA,YPKA,-20.712222,116.77333300000001,AUD,0.7253,1.3791
3346,Kalgoorlie Boulder,Kalgoorlie,australia,KGI,YPKG,-30.789444,121.46166699999999,AUD,0.7253,1.3791
3347,Kununurra,Kununurra,australia,KNX,YPKU,-15.778056,128.7075,AUD,0.7253,1.3791
3348,Learmonth,Learmonth,australia,LEA,YPLM,-22.235556,114.08861100000001,AUD,0.7253,1.3791
3349,Port Hedland Intl,Port Hedland,australia,PHE,YPPD,-20.377778,118.62638899999999,AUD,0.7253,1.3791
3351,Perth Intl,Perth,australia,PER,YPPH,-31.940278000000003,115.966944,AUD,0.7253,1.3791
3352,Woomera,Woomera,australia,UMR,YPWR,-31.144167,136.816944,AUD,0.7253,1.3791
3354,Sydney Bankstown,Sydney,australia,BWU,YSBK,-33.924444,150.988333,AUD,0.7253,1.3791
3355,Canberra,Canberra,australia,CBR,YSCB,-35.306944,149.195,AUD,0.7253,1.3791
3356,Coffs Harbour,Coff's Harbour,australia,CFS,YSCH,-30.320556,153.116389,AUD,0.7253,1.3791
3357,Camden,Camden,australia,CDU,YSCN,-34.040278,150.687222,AUD,0.7253,1.3791
3358,Dubbo,Dubbo,australia,DBO,YSDU,-32.216667,148.574722,AUD,0.7253,1.3791
3360,Richmond,Richmond,australia,RCM,YSRI,-33.600556,150.780833,AUD,0.7253,1.3791
3361,Sydney Intl,Sydney,australia,SYD,YSSY,-33.946111,151.177222,AUD,0.7253,1.3791
3362,Tamworth,Tamworth,australia,TMW,YSTW,-31.083889000000003,150.846667,AUD,0.7253,1.3791
3363,Wagga Wagga,Wagga Wagga,australia,WGA,YSWG,-35.165278,147.466389,AUD,0.7253,1.3791
3990,Emerald,Emerald,australia,EMD,YEML,-23.5675,148.179167,AUD,0.7253,1.3791
3999,Darwin Intl,Darwin,australia,DRW,YPDN,-12.4083333,130.87266,AUD,0.7253,1.3791
4010,Ayers Rock,Uluru,australia,AYQ,YAYE,-25.186111,130.975556,AUD,0.7253,1.3791
4051,Kingscote Airport,Kingscote,australia,KGC,YKSC,-35.713889,137.521389,AUD,0.7253,1.3791
4052,Hervey Bay Airport,Hervey Bay,australia,HVB,YHBA,-25.318889000000002,152.880278,AUD,0.7253,1.3791
4062,Armidale,Armidale,australia,ARM,YARM,-30.528056,151.617222,AUD,0.7253,1.3791
4217,Blackall,Blackall,australia,BKQ,YBCK,-24.427778,145.42861100000002,AUD,0.7253,1.3791
4218,Bundaberg,Bundaberg,australia,BDB,YBUD,-24.903889000000003,152.318611,AUD,0.7253,1.3791
4221,Hayman Island Airport,Hayman Island,australia,HIS,YHYN,-20.066668,148.86667,AUD,0.7253,1.3791
4289,Thangool,Biloela,australia,THG,YTNG,-24.493889000000003,150.576111,AUD,0.7253,1.3791
4291,Ballina Byron Gateway,Ballina Byron Bay,australia,BNK,YBNA,-28.833889000000003,153.5625,AUD,0.7253,1.3791
4319,Broome,Broome,australia,BME,YPBR,-17.8,122.2,AUD,0.7253,1.3791
4320,Newcastle Airport,Newcastle,australia,NTL,YWLM,-32.78,151.83,AUD,0.7253,1.3791
6805,Goulburn Airport,Goulburn,australia,GUL,YGLB,-34.8103,149.726,AUD,0.7253,1.3791
6235,Albany Airport,Albany,australia,ALH,YABA,-34.9433,117.809,AUD,0.7253,1.3791
6236,Argyle Airport,Argyle,australia,GYL,YARG,-16.6369,128.451,AUD,0.7253,1.3791
6237,Aurukun Airport,Aurukun,australia,AUU,YAUR,-13.3539,141.721,AUD,0.7253,1.3791
6238,Barcaldine Airport,Barcaldine,australia,BCI,YBAR,-23.5653,145.30700000000002,AUD,0.7253,1.3791
6239,Badu Island Airport,Badu Island,australia,BDD,YBAU,-10.15,141.175,AUD,0.7253,1.3791
6240,Birdsville Airport,Birdsville,australia,BVI,YBDV,-25.8975,139.34799999999998,AUD,0.7253,1.3791
6241,Broken Hill Airport,Broken Hill,australia,BHQ,YBHI,-32.0014,141.472,AUD,0.7253,1.3791
6242,Hamilton Island Airport,Hamilton Island,australia,HTI,YBHM,-20.3581,148.952,AUD,0.7253,1.3791
6243,Bedourie Airport,Bedourie,australia,BEU,YBIE,-24.3461,139.46,AUD,0.7253,1.3791
6244,Bourke Airport,Bourke,australia,BRK,YBKE,-30.0392,145.952,AUD,0.7253,1.3791
6245,Burketown Airport,Burketown,australia,BUC,YBKT,-17.7486,139.534,AUD,0.7253,1.3791
6246,Boigu Airport,Boigu,australia,GIC,YBOI,-9.23278,142.218,AUD,0.7253,1.3791
6247,Oakey Airport,Oakey,australia,OKY,YBOK,-27.411389,151.735278,AUD,0.7253,1.3791
6248,Boulia Airport,Boulia,australia,BQL,YBOU,-22.9133,139.9,AUD,0.7253,1.3791
6249,Bathurst Airport,Bathurst,australia,BHS,YBTH,-33.4094,149.65200000000002,AUD,0.7253,1.3791
6250,Blackwater Airport,Blackwater,australia,BLT,YBTR,-23.6031,148.80700000000002,AUD,0.7253,1.3791
6251,Carnarvon Airport,Carnarvon,australia,CVQ,YCAR,-24.8806,113.67200000000001,AUD,0.7253,1.3791
6252,Cobar Airport,Cobar,australia,CAZ,YCBA,-31.5383,145.79399999999998,AUD,0.7253,1.3791
6253,Coober Pedy Airport,Coober Pedy,australia,CPD,YCBP,-29.04,134.721,AUD,0.7253,1.3791
6254,Coconut Island Airport,Coconut Island,australia,CNC,YCCT,-10.05,143.07,AUD,0.7253,1.3791
6255,Cloncurry Airport,Cloncurry,australia,CNJ,YCCY,-20.6686,140.504,AUD,0.7253,1.3791
6256,Ceduna Airport,Ceduna,australia,CED,YCDU,-32.1306,133.71,AUD,0.7253,1.3791
6257,Cooktown Airport,Cooktown,australia,CTN,YCKN,-15.4447,145.184,AUD,0.7253,1.3791
6258,Cunnamulla Airport,Cunnamulla,australia,CMA,YCMU,-28.03,145.622,AUD,0.7253,1.3791
6259,Coonamble Airport,Coonamble,australia,CNB,YCNM,-30.9833,148.376,AUD,0.7253,1.3791
6260,Coen Airport,Coen,australia,CUQ,YCOE,-13.7608,143.114,AUD,0.7253,1.3791
6261,Cooma Snowy Mountains Airport,Cooma,australia,OOM,YCOM,-36.3006,148.974,AUD,0.7253,1.3791
6262,Doomadgee Airport,Doomadgee,australia,DMD,YDMG,-17.9403,138.822,AUD,0.7253,1.3791
6263,Darnley Island Airport,Darnley Island,australia,NLF,YDNI,-9.58333,143.767,AUD,0.7253,1.3791
6264,Devonport Airport,Devonport,australia,DPO,YDPO,-41.1697,146.43,AUD,0.7253,1.3791
6265,Elcho Island Airport,Elcho Island,australia,ELC,YELD,-12.0194,135.571,AUD,0.7253,1.3791
6266,Esperance Airport,Esperance,australia,EPR,YESP,-33.6844,121.823,AUD,0.7253,1.3791
6267,Flinders Island Airport,Flinders Island,australia,FLS,YFLI,-40.0917,147.993,AUD,0.7253,1.3791
6268,Geraldton Airport,Geraldton,australia,GET,YGEL,-28.7961,114.70700000000001,AUD,0.7253,1.3791
6269,Gladstone Airport,Gladstone,australia,GLT,YGLA,-23.8697,151.22299999999998,AUD,0.7253,1.3791
6270,Groote Eylandt Airport,Groote Eylandt,australia,GTE,YGTE,-13.975,136.46,AUD,0.7253,1.3791
6271,Griffith Airport,Griffith,australia,GFF,YGTH,-34.2508,146.067,AUD,0.7253,1.3791
6272,Horn Island Airport,Horn Island,australia,HID,YHID,-10.5864,142.29,AUD,0.7253,1.3791
6273,Hooker Creek Airport,Hooker Creek,australia,HOK,YHOO,-18.3367,130.638,AUD,0.7253,1.3791
6274,Mount Hotham Airport,Mount Hotham,australia,MHU,YHOT,-37.0475,147.334,AUD,0.7253,1.3791
6275,Hughenden Airport,Hughenden,australia,HGD,YHUG,-20.815,144.225,AUD,0.7253,1.3791
6276,Julia Creek Airport,Julia Creek,australia,JCK,YJLC,-20.6683,141.72299999999998,AUD,0.7253,1.3791
6277,Kalbarri Airport,Kalbarri,australia,KAX,YKBR,-27.69,114.262,AUD,0.7253,1.3791
6278,King Island Airport,King Island,australia,KNS,YKII,-39.8775,143.878,AUD,0.7253,1.3791
6279,Kalkgurung Airport,Kalkgurung,australia,KFG,YKKG,-17.4319,130.808,AUD,0.7253,1.3791
6280,Karumba Airport,Karumba,australia,KRB,YKMB,-17.4567,140.83,AUD,0.7253,1.3791
6281,Kowanyama Airport,Kowanyama,australia,KWM,YKOW,-15.4856,141.751,AUD,0.7253,1.3791
6282,Kubin Airport,Kubin,australia,KUG,YKUB,-10.225,142.218,AUD,0.7253,1.3791
6283,Leonora Airport,Leonora,australia,LNO,YLEO,-28.8781,121.315,AUD,0.7253,1.3791
6284,Lake Evella Airport,Lake Evella,australia,LEL,YLEV,-12.4989,135.806,AUD,0.7253,1.3791
6285,Lord Howe Island Airport,Lord Howe Island,australia,LDH,YLHI,-31.5383,159.077,AUD,0.7253,1.3791
6286,Lockhart River Airport,Lockhart River,australia,IRG,YLHR,-12.7869,143.305,AUD,0.7253,1.3791
6287,Lismore Airport,Lismore,australia,LSY,YLIS,-28.8303,153.26,AUD,0.7253,1.3791
6288,Lightning Ridge Airport,Lightning Ridge,australia,LHG,YLRD,-29.4567,147.984,AUD,0.7253,1.3791
6289,Longreach Airport,Longreach,australia,LRE,YLRE,-23.4342,144.28,AUD,0.7253,1.3791
6290,Leinster Airport,Leinster,australia,LER,YLST,-27.8433,120.70299999999999,AUD,0.7253,1.3791
6291,Laverton Airport,Laverton,australia,LVO,YLTN,-28.6136,122.42399999999999,AUD,0.7253,1.3791
6292,Mabuiag Island Airport,Mabuiag Island,australia,UBB,YMAA,-9.95,142.183,AUD,0.7253,1.3791
6293,Meekatharra Airport,Meekatharra,australia,MKR,YMEK,-26.6117,118.54799999999999,AUD,0.7253,1.3791
6294,Merimbula Airport,Merimbula,australia,MIM,YMER,-36.9086,149.901,AUD,0.7253,1.3791
6295,Milingimbi Airport,Milingimbi,australia,MGT,YMGB,-12.0944,134.894,AUD,0.7253,1.3791
6296,Maningrida Airport,Maningrida,australia,MNG,YMGD,-12.0561,134.234,AUD,0.7253,1.3791
6297,McArthur River Mine Airport,McArthur River Mine,australia,MCV,YMHU,-16.4425,136.084,AUD,0.7253,1.3791
6298,Mildura Airport,Mildura,australia,MQL,YMIA,-34.2292,142.086,AUD,0.7253,1.3791
6299,Mount Magnet Airport,Mount Magnet,australia,MMG,YMOG,-28.1161,117.84200000000001,AUD,0.7253,1.3791
6300,Moree Airport,Moree,australia,MRZ,YMOR,-29.4989,149.845,AUD,0.7253,1.3791
6301,Moranbah Airport,Moranbah,australia,MOV,YMRB,-22.0578,148.077,AUD,0.7253,1.3791
6302,Moruya Airport,Moruya,australia,MYA,YMRY,-35.8978,150.144,AUD,0.7253,1.3791
6303,Mount Gambier Airport,Mount Gambier,australia,MGB,YMTG,-37.7456,140.785,AUD,0.7253,1.3791
6304,Mornington Island Airport,Mornington Island,australia,ONG,YMTI,-16.6625,139.178,AUD,0.7253,1.3791
6305,Murray Island Airport,Murray Island,australia,MYI,YMUI,-9.91667,144.055,AUD,0.7253,1.3791
6306,Maryborough Airport,Maryborough,australia,MBH,YMYB,-25.5133,152.715,AUD,0.7253,1.3791
6307,Narrandera Airport,Narrandera,australia,NRA,YNAR,-34.7022,146.512,AUD,0.7253,1.3791
6308,Narrabri Airport,Narrabri,australia,NAA,YNBR,-30.3192,149.827,AUD,0.7253,1.3791
6309,Normanton Airport,Normanton,australia,NTN,YNTN,-17.6836,141.07,AUD,0.7253,1.3791
6310,Newman Airport,Newman,australia,ZNE,YNWN,-23.4178,119.803,AUD,0.7253,1.3791
6311,Olympic Dam Airport,Olympic Dam,australia,OLP,YOLD,-30.485,136.877,AUD,0.7253,1.3791
6312,Port Augusta Airport,Argyle,australia,PUG,YPAG,-32.506944,137.716667,AUD,0.7253,1.3791
6313,Palm Island Airport,Palm Island,australia,PMK,YPAM,-18.7553,146.58100000000002,AUD,0.7253,1.3791
6314,Paraburdoo Airport,Paraburdoo,australia,PBO,YPBO,-23.1711,117.745,AUD,0.7253,1.3791
6316,Gove Airport,Gove,australia,GOV,YPGV,-12.2694,136.81799999999998,AUD,0.7253,1.3791
6317,Parkes Airport,Parkes,australia,PKE,YPKS,-33.1314,148.239,AUD,0.7253,1.3791
6318,Port Lincoln Airport,Port Lincoln,australia,PLO,YPLC,-34.6053,135.88,AUD,0.7253,1.3791
6319,Pormpuraaw Airport,Pormpuraaw,australia,EDR,YPMP,-14.8967,141.609,AUD,0.7253,1.3791
6320,Port Macquarie Airport,Port Macquarie,australia,PQQ,YPMQ,-31.4358,152.863,AUD,0.7253,1.3791
6321,Portland Airport,Portland,australia,PTJ,YPOD,-38.3181,141.471,AUD,0.7253,1.3791
6322,Quilpie Airport,Quilpie,australia,ULP,YQLP,-26.6122,144.253,AUD,0.7253,1.3791
6323,Ramingining Airport,Ramingining,australia,RAM,YRNG,-12.3564,134.898,AUD,0.7253,1.3791
6324,Roma Airport,Roma,australia,RMA,YROM,-26.545,148.775,AUD,0.7253,1.3791
6325,St George Airport,St George,australia,SGO,YSGE,-28.0497,148.595,AUD,0.7253,1.3791
6326,Shark Bay Airport,Shark Bay,australia,MJK,YSHK,-25.8939,113.57700000000001,AUD,0.7253,1.3791
6327,Saibai Island Airport,Saibai Island,australia,SBR,YSII,-9.37833,142.625,AUD,0.7253,1.3791
6328,Strahan Airport,Strahan,australia,SRN,YSRN,-42.155,145.292,AUD,0.7253,1.3791
6329,Thargomindah Airport,Thargomindah,australia,XTG,YTGM,-27.9864,143.811,AUD,0.7253,1.3791
6330,Tennant Creek Airport,Tennant Creek,australia,TCA,YTNK,-19.6344,134.183,AUD,0.7253,1.3791
6331,Victoria River Downs Airport,Victoria River Downs,australia,VCD,YVRD,-16.4033,131.002,AUD,0.7253,1.3791
6332,Warraber Island Airport,Sue Islet,australia,SYU,YWBS,-10.2083,142.825,AUD,0.7253,1.3791
6333,Windorah Airport,Windorah,australia,WNR,YWDH,-25.4131,142.667,AUD,0.7253,1.3791
6334,Whyalla Airport,Whyalla,australia,WYA,YWHA,-33.0589,137.514,AUD,0.7253,1.3791
6335,Wiluna Airport,Wiluna,australia,WUN,YWLU,-26.6292,120.221,AUD,0.7253,1.3791
6336,Wollongong Airport,Wollongong,australia,WOL,YWOL,-34.5611,150.789,AUD,0.7253,1.3791
6337,Winton Airport,Winton,australia,WIN,YWTN,-22.3636,143.086,AUD,0.7253,1.3791
6338,Wynyard Airport,Burnie,australia,BWT,YWYY,-40.9989,145.731,AUD,0.7253,1.3791
6339,Yorke Island Airport,Yorke Island,australia,OKR,YYKI,-9.75703,143.411,AUD,0.7253,1.3791
6340,Yam Island Airport,Yam Island,australia,XMY,YYMI,-9.901110000000001,142.776,AUD,0.7253,1.3791
6419,Mount Keith,Mount Keith,australia,WME,YMNE,-27.286389,120.554722,AUD,0.7253,1.3791
6899,Nowra Airport,Nowra,australia,NOA,YSNW,-34.9489,150.537,AUD,0.7253,1.3791
6897,Tindal Airport,Katherine,australia,KTR,YPTN,-14.5211,132.378,AUD,0.7253,1.3791
6794,Taree Airport,Taree,australia,TRO,YTRE,-31.8886,152.514,AUD,0.7253,1.3791
6793,Orange Airport,Orange,australia,OAG,YORG,-33.3817,149.13299999999998,AUD,0.7253,1.3791
6792,Grafton Airport,Grafton,australia,GFN,YGFN,-29.7594,153.03,AUD,0.7253,1.3791
7128,Toowoomba,Toowoomba,australia,TWB,YTWB,-27.542778000000002,151.91638899999998,AUD,0.7253,1.3791
7566,Barrow Island Airport,Barrow Island,australia,BWB,YBWX,-20.798000000000002,115.406,AUD,0.7253,1.3791
7567,Morawa Airport,Morawa,australia,MWB,\N,-29.211,116.009,AUD,0.7253,1.3791
7568,Exmouth Airport,Exmouth,australia,EXM,\N,-21.933000000000003,114.12799999999999,AUD,0.7253,1.3791
7569,Derby Airport,Derby,australia,DRB,YDBY,-17.39,123.68,AUD,0.7253,1.3791
7570,Walgett Airport,Walgett,australia,WGE,YWLG,-30.0318,148.1222,AUD,0.7253,1.3791
7571,Bathurst Island Airport,Bathurst Island,australia,BRT,YBTI,-11.769167,130.619722,AUD,0.7253,1.3791
7572,Dunk Island Airport,Dunk Island,australia,DKI,YDKI,-17.939722,146.141944,AUD,0.7253,1.3791
7573,Lizard Island Airport,Lizard Island,australia,LZR,YLZI,-14.673055999999999,145.454444,AUD,0.7253,1.3791
7574,Hamilton Airport,Hamilton,australia,HLT,YHML,-37.648889000000004,142.065278,AUD,0.7253,1.3791
7575,Halls Creek Airport,Halls Creek,australia,HCQ,YHLC,-18.233889,127.669722,AUD,0.7253,1.3791
7576,Fitzroy Crossing Airport,Fitzroy Crossing,australia,FIZ,YFTZ,-18.178,125.59100000000001,AUD,0.7253,1.3791
7577,Ravensthorpe Airport,Ravensthorpe,australia,RVT,YNRV,-33.797222,120.208056,AUD,0.7253,1.3791
7636,Heron Island,Heron Island,australia,HRN,\N,-23.441667000000002,151.91138899999999,AUD,0.7253,1.3791
7637,Lady Elliot Island,Lady Elliot Island,australia,LYT,\N,-24.113332999999997,152.715278,AUD,0.7253,1.3791
7638,Orpheus Island,Orpheus Island,australia,ORS,\N,-18.634,146.5,AUD,0.7253,1.3791
7704,Geelong Airport,Geelong,australia,GEX,YGLG,-38.225,144.333,AUD,0.7253,1.3791
7782,Penneshaw Airport,Penneshaw,australia,PEA,YPSH,-34.75,137.933,AUD,0.7253,1.3791
7912,Cooinda,Cooinda,australia,CDA,YCOO,-12.9033,132.532,AUD,0.7253,1.3791
7913,Jabiru,Jabiru,australia,JAB,YJAB,-12.6571,132.893,AUD,0.7253,1.3791
8265,Telfer Airport,Telfer,australia,TEF,YTEF,-21.713057,122.21222,AUD,0.7253,1.3791
8348,Renmark,Renmark,australia,RMK,YREN,-34.118,140.404,AUD,0.7253,1.3791
8380,Mallacoota Airport,Mallacoota,australia,XMC,YMCO,-37.598301,149.720001,AUD,0.7253,1.3791
8395,Yuendumu ,Yuendumu ,australia,YUE,YYND,-22.254167000000002,131.78194399999998,AUD,0.7253,1.3791
8820,Great Keppel Island,Great Keppel Island,australia,GKL,YGKL,-23.186,150.94299999999998,AUD,0.7253,1.3791
8821,Roper Bar,Roper Bar,australia,RPB,YRRB,-14.734570000000001,134.5252,AUD,0.7253,1.3791
8823,Innisfail,Innisfail,australia,IFL,YIFL,-17.559079999999998,146.01123,AUD,0.7253,1.3791
8831,Moomba,Moomba,australia,MOO,YOOM,-28.1,140.2,AUD,0.7253,1.3791
8847,Onslow ,Onslow,australia,ONS,YOLW,-21.666999999999998,115.116,AUD,0.7253,1.3791
8848,Theodore,Theodore,australia,TDR,YTDR,-24.986736999999998,150.09311200000002,AUD,0.7253,1.3791
8980,Chinchilla,Chinchilla,australia,CCL,YCCA,-26.769444,150.616667,AUD,0.7253,1.3791
8984,Shute Harbour,Shute Harbour,australia,JHQ,YSHR,-20.278299,148.757004,AUD,0.7253,1.3791
8994,Shepparton,Shepparton,australia,SHT,YSHT,-36.428902,145.39300500000002,AUD,0.7253,1.3791
8995,Temora,Temora,australia,TEM,YTEM,-34.4248,147.5104,AUD,0.7253,1.3791
8996,Gayndah,Gayndah,australia,GAH,YGAY,-25.61528,151.62083,AUD,0.7253,1.3791
8998,Wilcannia,Wilcannia,australia,WIO,YWCA,-31.51749992,143.3789978,AUD,0.7253,1.3791
9065,Belmont Airport,Lake Macquarie,australia,BEO,YPEC,-33.066666999999995,151.648333,AUD,0.7253,1.3791
9068,Brampton Island,Brampton Island,australia,BMP,YBPI,-20.804444399999998,149.27944440000002,AUD,0.7253,1.3791
9090,Brusselton,Brusselton,australia,BQB,YBLN,-33.687222,115.400278,AUD,0.7253,1.3791
9095,Inverell,Inverell,australia,IVR,YIVL,-29.888333000000003,151.14416699999998,AUD,0.7253,1.3791
9096,Glen Innes,Glen Innes,australia,GLI,YGLI,-29.675,151.69,AUD,0.7253,1.3791
9127,Dave Forest Airport,Cloudbreak,australia,KFE,YFDF,-22.291945000000002,119.437225,AUD,0.7253,1.3791
9146,Solomon Airport,Solomon,australia,SLJ,YSOL,-22.255,117.85,AUD,0.7253,1.3791
9193,Coonabarabran,Coonabarabran,australia,COJ,YCBB,-31.337221000000003,149.27194,AUD,0.7253,1.3791
9402,Bairnsdale Airport,Bairnsdale,australia,BSJ,YBNS,-37.8875,147.567778,AUD,0.7253,1.3791
9532,Prominent Hill,Prominent Hill,australia,PXH,YPMH,-29.716666999999998,135.52166699999998,AUD,0.7253,1.3791
1609,Graz,Graz,austria,GRZ,LOWG,46.991067,15.439627999999999,EUR,1.0,1.0
1610,Innsbruck,Innsbruck,austria,INN,LOWI,47.260219,11.343964,EUR,1.0,1.0
1611,Linz,Linz,austria,LNZ,LOWL,48.233219,14.187510999999999,EUR,1.0,1.0
1612,Salzburg,Salzburg,austria,SZG,LOWS,47.793304,13.004333,EUR,1.0,1.0
1613,Schwechat,Vienna,austria,VIE,LOWW,48.110278,16.569722,EUR,1.0,1.0
6797,Hohenems,Hohenems,austria,HOJ,LOIH,47.385,9.7,EUR,1.0,1.0
4322,Woerthersee International Airport,Klagenfurt,austria,KLU,LOWK,46.642514,14.337739000000001,EUR,1.0,1.0
8490,Hauptbahnhof,Salzburg,austria,ZSB,\N,47.813056,13.046667,EUR,1.0,1.0
9230,Westbahnhoff,Vienna,austria,XWW,\N,48.196667,16.337778,EUR,1.0,1.0
2922,Heydar Aliyev,Baku,azerbaijan,GYD,UBBB,40.4675,50.046667,AZN,0.905,1.1062
4288,Heydar Aliyev,Baku,azerbaijan,BAK,\N,40.4675,50.046667,AZN,0.905,1.1062
6090,Nakhchivan Airport,Nakhchivan,azerbaijan,NAJ,UBBN,39.1888,45.4584,AZN,0.905,1.1062
6089,Ganja Airport,Ganja,azerbaijan,KVD,UBBG,40.7377,46.3176,AZN,0.905,1.1062
8774,Lankaran International Airport,Lankaran,azerbaijan,LLK,UBBL,38.746389,48.817778000000004,AZN,0.905,1.1062
8775,Qabala Airport,Qabala,azerbaijan,GBB,UBBQ,40.826667,47.7125,AZN,0.905,1.1062
8776,Zaqatala International Airport,Zaqatala,azerbaijan,ZTU,UBBY,41.562222,46.667221999999995,AZN,0.905,1.1062
1928,Fresh Creek,Andros Town,bahamas,ASD,MYAF,24.698283,-77.795611,BSD,0.958,1.058
1930,Marsh Harbour,Marsh Harbor,bahamas,MHH,MYAM,26.511406,-77.083472,BSD,0.958,1.058
1931,San Andros,San Andros,bahamas,SAQ,MYAN,25.053814000000003,-78.048997,BSD,0.958,1.058
1932,Spring Point,Spring Point,bahamas,AXP,MYAP,22.441828,-73.97085799999999,BSD,0.958,1.058
1934,Treasure Cay,Treasure Cay,bahamas,TCB,MYAT,26.745335999999998,-77.391269,BSD,0.958,1.058
1935,Chub Cay,Chub Cay,bahamas,CCZ,MYBC,25.417108,-77.88085,BSD,0.958,1.058
1937,South Bimini,Alice Town,bahamas,BIM,MYBS,25.699881,-79.264656,BSD,0.958,1.058
1941,Exuma Intl,Great Exuma,bahamas,GGT,MYEF,23.562631,-75.87795799999999,BSD,0.958,1.058
1943,North Eleuthera,North Eleuthera,bahamas,ELH,MYEH,25.474860999999997,-76.683489,BSD,0.958,1.058
1944,Governors Harbour,Governor's Harbor,bahamas,GHB,MYEM,25.284706,-76.331011,BSD,0.958,1.058
1946,Rock Sound,Rock Sound,bahamas,RSD,MYER,24.8917,-76.177739,BSD,0.958,1.058
1948,Grand Bahama Intl,Freeport,bahamas,FPO,MYGF,26.558685999999998,-78.695553,BSD,0.958,1.058
1949,Matthew Town,Matthew Town,bahamas,IGA,MYIG,20.975,-73.666862,BSD,0.958,1.058
1950,Deadmans Cay,Dead Man's Cay,bahamas,LGI,MYLD,23.179014000000002,-75.093597,BSD,0.958,1.058
1951,Stella Maris,Stella Maris,bahamas,SML,MYLS,23.581444,-75.270475,BSD,0.958,1.058
1952,Mayaguana,Mayaguana,bahamas,MYG,MYMM,22.379528,-73.0135,BSD,0.958,1.058
1953,Lynden Pindling Intl,Nassau,bahamas,NAS,MYNN,25.038957999999997,-77.46623100000001,BSD,0.958,1.058
1956,San Salvador,Cockburn Town,bahamas,ZSA,MYSM,24.063275,-74.523967,BSD,0.958,1.058
4003,Bimini North Seaplane Base,Bimini,bahamas,NSB,\N,25.767,-79.25,BSD,0.958,1.058
5860,Nassau Paradise Island Airport,Nassau,bahamas,PID,MYPI,25.083000000000002,-77.3,BSD,0.958,1.058
5859,Colonel Hill Airport,Colonel Hill,bahamas,CRI,MYCI,22.745561,-74.182353,BSD,0.958,1.058
5858,New Bight Airport,Cat Island,bahamas,CAT,MYCB,24.315292000000003,-75.452331,BSD,0.958,1.058
5857,Arthurs Town Airport,Arthur's Town,bahamas,ATC,MYCA,24.629417,-75.673775,BSD,0.958,1.058
5856,Congo Town Airport,Andros,bahamas,COX,MYAK,24.158932999999998,-77.58975799999999,BSD,0.958,1.058
7865,Paradise Island Seaplane Base,Nassau,bahamas,WZY,\N,25.0872,-77.3239,BSD,0.958,1.058
2057,Bahrain Intl,Bahrain,bahrain,BAH,OBBI,26.270834000000004,50.63361,BHD,2.5409,0.4011
3068,Coxs Bazar,Cox's Bazar,bangladesh,CXB,VGCB,21.452194,91.963889,BDT,0.01241,84.1862
3069,Shah Amanat Intl,Chittagong,bangladesh,CGP,VGEG,22.249610999999998,91.813286,BDT,0.01241,84.1862
3070,Ishurdi,Ishurdi,bangladesh,IRD,VGIS,24.1525,89.049446,BDT,0.01241,84.1862
3071,Jessore,Jessore,bangladesh,JSR,VGJR,23.1838,89.160833,BDT,0.01241,84.1862
3072,Shah Mokhdum,Rajshahi,bangladesh,RJH,VGRJ,24.437219,88.616511,BDT,0.01241,84.1862
3073,Saidpur,Saidpur,bangladesh,SPD,VGSD,25.759228,88.908869,BDT,0.01241,84.1862
3074,Osmany Intl,Sylhet Osmani,bangladesh,ZYL,VGSY,24.963242,91.866783,BDT,0.01241,84.1862
3076,Zia Intl,Dhaka,bangladesh,DAC,VGZR,23.843332999999998,90.39778100000001,BDT,0.01241,84.1862
6176,Barisal Airport,Barisal,bangladesh,BZL,VGBR,22.801,90.3012,BDT,0.01241,84.1862
2875,Grantley Adams Intl,Bridgetown,barbados,BGI,TBPB,13.074603,-59.492456000000004,BBD,0.47442399999999996,2.10814
2950,Gomel,Gomel,belarus,GME,UMGG,52.527021999999995,31.016692,BYR,6.29e-05,16013.2
2951,Vitebsk,Vitebsk,belarus,VTB,UMII,55.1265,30.349639,BYR,6.29e-05,16013.2
2953,Minsk 1,Minsk,belarus,MHP,UMMM,53.864472,27.539683,BYR,6.29e-05,16013.2
2954,Minsk 2,Minsk 2,belarus,MSQ,UMMS,53.88246899999999,28.030731,BYR,6.29e-05,16013.2
6115,Hrodno Airport,Hrodna,belarus,GNA,UMMG,53.602,24.0538,BYR,6.29e-05,16013.2
6116,Mogilev Airport,Mogilev,belarus,MVQ,UMOO,53.9549,30.0951,BYR,6.29e-05,16013.2
6908,Brest,Brest,belarus,BQT,UMBB,52.06,23.53,BYR,6.29e-05,16013.2
299,Deurne,Antwerp,belgium,ANR,EBAW,51.189444,4.460278,EUR,1.0,1.0
302,Brussels Natl,Brussels,belgium,BRU,EBBR,50.901389,4.484444,EUR,1.0,1.0
304,Brussels South,Charleroi,belgium,CRL,EBCI,50.459196999999996,4.453817,EUR,1.0,1.0
308,Wevelgem,Kortrijk-vevelgem,belgium,QKT,EBKT,50.817221999999994,3.2047220000000003,EUR,1.0,1.0
309,Liege,Liege,belgium,LGG,EBLG,50.637417,5.4432220000000004,EUR,1.0,1.0
310,Oostende,Ostend,belgium,OST,EBOS,51.198889,2.862222,EUR,1.0,1.0
7284,Brussels Gare du Midi,Brussels,belgium,ZYR,\N,50.8,4.4,EUR,1.0,1.0
7810,Knokke-Heist Westkapelle Heliport,Knokke,belgium,KNO,EBKW,51.3222,3.2930599999999997,EUR,1.0,1.0
8491,Centraal,Antwerp,belgium,ZWE,\N,51.217222,4.421111,EUR,1.0,1.0
8768,Liege-Guillemins Railway Station,Liege,belgium,XHN,\N,50.6333,5.566669999999999,EUR,1.0,1.0
1957,Philip S W Goldson Intl,Belize City,belize,BZE,MZBZ,17.539144,-88.308203,BZD,0.4858,2.1592
4279,San Pedro,San Pedro,belize,SPR,MZ10,17.913936,-87.971075,BZD,0.4858,2.1592
6463,Belize City Municipal Airport,Belize,belize,TZA,\N,17.5344,-88.29799999999999,BZD,0.4858,2.1592
7029,Municipal,Corozal,belize,CZH,\N,18.3822,-88.4119,BZD,0.4858,2.1592
7285,Caye Chapel Airport,Caye Chapel,belize,CYC,\N,17.683611,-88.045,BZD,0.4858,2.1592
7286,Big Creek Airport,Big Creek,belize,BGK,\N,16.516667,-88.416667,BZD,0.4858,2.1592
7287,Dangriga Airport,Dangriga,belize,DGA,\N,16.966667,-88.216667,BZD,0.4858,2.1592
7288,Placencia Airport,Placencia,belize,PLJ,\N,16.536944000000002,-88.36166700000001,BZD,0.4858,2.1592
7289,Sartaneja Airport,Sarteneja,belize,SJX,\N,18.355556,-88.130833,BZD,0.4858,2.1592
8227,Hector Silva Airstrip,Belmopan,belize,BCV,\N,17.269444,-88.776111,BZD,0.4858,2.1592
245,Cadjehoun,Cotonou,benin,COO,DBBB,6.357228,2.384353,XOF,0.001524,655.957
4069,Bermuda Intl,Bermuda,bermuda,BDA,TXKF,32.364042,-64.678703,BMD,0.9488,1.0541
3155,Paro,Thimphu,bhutan,PBH,VQPR,27.403191999999997,89.42460600000001,INR,0.01511,66.2901
2758,Bermejo,Bermejo,bolivia,BJO,SLBJ,-22.773335999999997,-64.312881,BOB,0.1408,7.5058
2759,Jorge Wilsterman,Cochabamba,bolivia,CBB,SLCB,-17.421058,-66.177114,BOB,0.1408,7.5058
2761,Heroes Del Acre,Cobija,bolivia,CIJ,SLCO,-11.040436,-68.782972,BOB,0.1408,7.5058
2762,El Alto Intl,La Paz,bolivia,LPB,SLLP,-16.513339000000002,-68.192256,BOB,0.1408,7.5058
2764,Capitan Nicolas Rojas,Potosi,bolivia,POI,SLPO,-19.543069,-65.723706,BOB,0.1408,7.5058
2765,Tte De Av Salvador Ogaya G,Puerto Suarez,bolivia,PSZ,SLPS,-18.975281,-57.820586,BOB,0.1408,7.5058
2767,Juana Azurduy De Padilla,Sucre,bolivia,SRE,SLSU,-19.007082999999998,-65.288747,BOB,0.1408,7.5058
2768,Capitan Oriel Lea Plaza,Tarija,bolivia,TJA,SLTJ,-21.555736,-64.701325,BOB,0.1408,7.5058
2769,Tte Av Jorge Henrich Arauz,Trinidad,bolivia,TDD,SLTR,-14.818739,-64.918019,BOB,0.1408,7.5058
2771,Viru Viru Intl,Santa Cruz,bolivia,VVI,SLVR,-17.644756,-63.135364,BOB,0.1408,7.5058
2772,Yacuiba,Yacuiba,bolivia,BYC,SLYA,-21.960925,-63.65166899999999,BOB,0.1408,7.5058
4247,Santa Cruz,Santa Cruz,bolivia,SRZ,\N,-17.8,-63.166667000000004,BOB,0.1408,7.5058
6059,Reyes Airport,Reyes,bolivia,REY,SLRY,-14.3044,-67.3534,BOB,0.1408,7.5058
6057,Puerto Rico Airport,Puerto Rico/Manuripi,bolivia,PUR,SLPR,-11.1077,-67.5512,BOB,0.1408,7.5058
6060,Capitán Av. German Quiroga G. Airport,San Borja,bolivia,SRJ,SLSB,-14.8592,-66.7375,BOB,0.1408,7.5058
6058,Capitán Av. Selin Zeitun Lopez Airport,Riberalta,bolivia,RIB,SLRI,-11.0,-66.0,BOB,0.1408,7.5058
6056,Capitán de Av. Emilio Beltrán Airport,Guayaramerín,bolivia,GYA,SLGY,-10.8206,-65.3456,BOB,0.1408,7.5058
7313,Uyuni Airport,Uyuni,bolivia,UYU,SLUY,-20.466667,-66.833333,BOB,0.1408,7.5058
7317,Rurrenabaque Airport,Rerrenabaque,bolivia,RBQ,SLRQ,-14.4275,-67.498056,BOB,0.1408,7.5058
1645,Mostar,Mostar,bosnia and herzegovina,OMO,LQMO,43.2829,17.845878,BAM,0.5114,1.9562
1646,Sarajevo,Sarajevo,bosnia and herzegovina,SJJ,LQSA,43.824583000000004,18.331467,BAM,0.5114,1.9562
5794,Banja Luka International Airport,Banja Luka,bosnia and herzegovina,BNX,LQBK,44.941444,17.297501,BAM,0.5114,1.9562
877,Francistown,Francistown,botswana,FRW,FBFT,-21.159597,27.474525,BWP,0.09489,10.8603
878,Jwaneng,Jwaneng,botswana,JWA,FBJW,-24.602332999999998,24.690970999999998,BWP,0.09489,10.8603
879,Kasane,Kasane,botswana,BBK,FBKE,-17.832875,25.1624,BWP,0.09489,10.8603
880,Maun,Maun,botswana,MUB,FBMN,-19.972564000000002,23.431085999999997,BWP,0.09489,10.8603
881,Sir Seretse Khama Intl,Gaberone,botswana,GBE,FBSK,-24.555225,25.918208,BWP,0.09489,10.8603
882,Selebi Phikwe,Selebi-phikwe,botswana,PKW,FBSP,-22.05835,27.828767,BWP,0.09489,10.8603
5610,Limpopo Valley Airport,Tuli Lodge,botswana,TLD,FBTL,-22.1892,29.1269,BWP,0.09489,10.8603
5609,Shakawe Airport,Shakawe,botswana,SWX,FBSW,-18.3739,21.8326,BWP,0.09489,10.8603
5608,Orapa Airport,Orapa,botswana,ORP,FBOR,-21.2667,25.3167,BWP,0.09489,10.8603
5607,Ghanzi Airport,Ghanzi,botswana,GNZ,FBGZ,-21.6925,21.6581,BWP,0.09489,10.8603
8053,Khwai River Lodge,Khwai River,botswana,KHW,FBKR,-19.149166,23.7875,BWP,0.09489,10.8603
2518,Conceicao Do Araguaia,Conceicao Do Araguaia,brazil,CDJ,SBAA,-8.348347,-49.301528000000005,BRL,0.2932,3.4191
2521,Araraquara,Araracuara,brazil,AQA,SBAQ,-21.811999999999998,-48.133028,BRL,0.2932,3.4191
2522,Santa Maria,Aracaju,brazil,AJU,SBAR,-10.984000000000002,-37.070333000000005,BRL,0.2932,3.4191
2524,Alta Floresta,Alta Floresta,brazil,AFL,SBAT,-9.866092,-56.10620600000001,BRL,0.2932,3.4191
2525,Aracatuba,Aracatuba,brazil,ARU,SBAU,-21.141342,-50.424721999999996,BRL,0.2932,3.4191
2526,Val De Cans Intl,Belem,brazil,BEL,SBBE,-1.37925,-48.476292,BRL,0.2932,3.4191
2527,Comandante Gustavo Kraemer,Bage,brazil,BGX,SBBG,-31.390528000000003,-54.112244,BRL,0.2932,3.4191
2528,Pampulha Carlos Drummond De Andrade,Belo Horizonte,brazil,PLU,SBBH,-19.851181,-43.950628,BRL,0.2932,3.4191
2529,Bacacheri,Curitiba,brazil,BFH,SBBI,-25.405078,-49.232036,BRL,0.2932,3.4191
2531,Presidente Juscelino Kubitschek,Brasilia,brazil,BSB,SBBR,-15.8711,-47.918625,BRL,0.2932,3.4191
2532,Bauru,Bauru,brazil,BAU,SBBU,-22.345042000000003,-49.0538,BRL,0.2932,3.4191
2533,Boa Vista,Boa Vista,brazil,BVB,SBBV,2.846311,-60.690068999999994,BRL,0.2932,3.4191
2535,Cascavel,Cascavel,brazil,CAC,SBCA,-25.000339,-53.500764000000004,BRL,0.2932,3.4191
2537,Tancredo Neves Intl,Belo Horizonte,brazil,CNF,SBCF,-19.63375,-43.968856,BRL,0.2932,3.4191
2538,Campo Grande,Campo Grande,brazil,CGR,SBCG,-20.468667,-54.6725,BRL,0.2932,3.4191
2539,Chapeco,Chapeco,brazil,XAP,SBCH,-27.134219,-52.656553,BRL,0.2932,3.4191
2540,Carolina,Carolina,brazil,CLN,SBCI,-7.320444,-47.458667,BRL,0.2932,3.4191
2541,Forquilhinha,Criciuma,brazil,CCM,SBCM,-28.725817,-49.424739,BRL,0.2932,3.4191
2543,Bartolomeu Lisandro,Campos,brazil,CAW,SBCP,-21.698332999999998,-41.301669,BRL,0.2932,3.4191
2544,Corumba Intl,Corumba,brazil,CMG,SBCR,-19.011931,-57.673053,BRL,0.2932,3.4191
2545,Afonso Pena,Curitiba,brazil,CWB,SBCT,-25.528475,-49.175775,BRL,0.2932,3.4191
2546,Caravelas,Caravelas,brazil,CRQ,SBCV,-17.652282999999997,-39.253069,BRL,0.2932,3.4191
2547,Campo Dos Bugres,Caxias Do Sul,brazil,CXJ,SBCX,-29.197064,-51.187536,BRL,0.2932,3.4191
2548,Marechal Rondon,Cuiaba,brazil,CGB,SBCY,-15.652931,-56.116718999999996,BRL,0.2932,3.4191
2549,Cruzeiro do Sul,Cruzeiro do Sul,brazil,CZS,SBCZ,-7.599906,-72.76948900000001,BRL,0.2932,3.4191
2550,Presidente Prudente,President Prudente,brazil,PPB,SBDN,-22.175056,-51.424639,BRL,0.2932,3.4191
2551,Eduardo Gomes Intl,Manaus,brazil,MAO,SBEG,-3.038611,-60.049721,BRL,0.2932,3.4191
2554,Cataratas Intl,Foz Do Iguacu,brazil,IGU,SBFI,-25.59615,-54.48720600000001,BRL,0.2932,3.4191
2555,Hercilio Luz,Florianopolis,brazil,FLN,SBFL,-27.670489,-48.547181,BRL,0.2932,3.4191
2556,Fernando De Noronha,Fernando Do Noronha,brazil,FEN,SBFN,-3.8549279999999997,-32.423336,BRL,0.2932,3.4191
2559,Pinto Martins Intl,Fortaleza,brazil,FOR,SBFZ,-3.7762830000000003,-38.532556,BRL,0.2932,3.4191
2560,Galeao Antonio Carlos Jobim,Rio De Janeiro,brazil,GIG,SBGL,-22.808903,-43.243646999999996,BRL,0.2932,3.4191
2562,Santa Genoveva,Goiania,brazil,GYN,SBGO,-16.632033,-49.220686,BRL,0.2932,3.4191
2564,Guarulhos Gov Andre Franco Montouro,Sao Paulo,brazil,GRU,SBGR,-23.432075,-46.469511,BRL,0.2932,3.4191
2566,Altamira,Altamira,brazil,ATM,SBHT,-3.253906,-52.253978000000004,BRL,0.2932,3.4191
2569,Ilheus,Ilheus,brazil,IOS,SBIL,-14.815964000000001,-39.033196999999994,BRL,0.2932,3.4191
2570,Usiminas,Ipatinga,brazil,IPN,SBIP,-19.470722,-42.487583,BRL,0.2932,3.4191
2572,Prefeito Renato Moreira,Imperatriz,brazil,IMP,SBIZ,-5.531292,-47.46005,BRL,0.2932,3.4191
2574,Francisco De Assis,Juiz De Fora,brazil,JDF,SBJF,-21.7915,-43.386778,BRL,0.2932,3.4191
2575,Presidente Castro Pinto,Joao Pessoa,brazil,JPA,SBJP,-7.148381,-34.950681,BRL,0.2932,3.4191
2576,Lauro Carneiro De Loyola,Joinville,brazil,JOI,SBJV,-26.224453000000004,-48.797364,BRL,0.2932,3.4191
2577,Presidente Joao Suassuna,Campina Grande,brazil,CPV,SBKG,-7.2699169999999995,-35.896364,BRL,0.2932,3.4191
2578,Viracopos,Campinas,brazil,VCP,SBKP,-23.0075,-47.134444,BRL,0.2932,3.4191
2580,Lins,Lins,brazil,LIP,SBLN,-21.664039000000002,-49.730519,BRL,0.2932,3.4191
2581,Londrina,Londrina,brazil,LDB,SBLO,-23.333625,-51.130072,BRL,0.2932,3.4191
2582,Bom Jesus Da Lapa,Bom Jesus Da Lapa,brazil,LAZ,SBLP,-13.262085999999998,-43.408114000000005,BRL,0.2932,3.4191
2584,Maraba,Maraba,brazil,MAB,SBMA,-5.368589,-49.138025,BRL,0.2932,3.4191
2586,Regional De Maringa Silvio Name Junior,Maringa,brazil,MGF,SBMG,-23.476392,-52.016405999999996,BRL,0.2932,3.4191
2587,Mario Ribeiro,Montes Claros,brazil,MOC,SBMK,-16.706925,-43.8189,BRL,0.2932,3.4191
2590,Zumbi Dos Palmares,Maceio,brazil,MCZ,SBMO,-9.510808,-35.791678000000005,BRL,0.2932,3.4191
2591,Macapa,Macapa,brazil,MCP,SBMQ,0.050664,-51.072178,BRL,0.2932,3.4191
2594,Manicore,Manicore,brazil,MNX,SBMY,-5.811381,-61.278318999999996,BRL,0.2932,3.4191
2595,Ministro Victor Konder Intl,Navegantes,brazil,NVT,SBNF,-26.879998999999998,-48.65139,BRL,0.2932,3.4191
2596,Santo Angelo,Santo Angelo,brazil,GEL,SBNM,-28.281683,-54.169139,BRL,0.2932,3.4191
2597,Augusto Severo,Natal,brazil,NAT,SBNT,-5.911417,-35.247717,BRL,0.2932,3.4191
2599,Salgado Filho,Porto Alegre,brazil,POA,SBPA,-29.994428000000003,-51.171428000000006,BRL,0.2932,3.4191
2601,Pocos De Caldas,Pocos De Caldas,brazil,POO,SBPC,-21.843014,-46.567917,BRL,0.2932,3.4191
2602,Lauro Kurtz,Passo Fundo,brazil,PFB,SBPF,-28.243989000000003,-52.326558,BRL,0.2932,3.4191
2603,Pelotas,Pelotas,brazil,PET,SBPK,-31.718353000000004,-52.327689,BRL,0.2932,3.4191
2604,Senador Nilo Coelho,Petrolina,brazil,PNZ,SBPL,-9.362411,-40.569097,BRL,0.2932,3.4191
2605,Porto Nacional,Porto Nacional,brazil,PNB,SBPN,-10.719417,-48.399736,BRL,0.2932,3.4191
2606,Ponta Pora,Ponta Pora,brazil,PMG,SBPP,-22.549639000000003,-55.702614000000004,BRL,0.2932,3.4191
2607,Governador Jorge Teixeira De Oliveira,Porto Velho,brazil,PVH,SBPV,-8.709294,-63.902281,BRL,0.2932,3.4191
2609,PlÃ¡cido de Castro,Rio Branco,brazil,RBR,SBRB,-9.583,-67.4836,BRL,0.2932,3.4191
2610,Guararapes Gilberto Freyre Intl,Recife,brazil,REC,SBRF,-8.126794,-34.923039,BRL,0.2932,3.4191
2611,Rio Grande,Rio Grande,brazil,RIG,SBRG,-32.082617,-52.166542,BRL,0.2932,3.4191
2612,Santos Dumont,Rio De Janeiro,brazil,SDU,SBRJ,-22.910460999999998,-43.163133,BRL,0.2932,3.4191
2613,Leite Lopes,Ribeirao Preto,brazil,RAO,SBRP,-21.134167,-47.774189,BRL,0.2932,3.4191
2614,Santa Cruz,Rio De Janeiro,brazil,STU,SBSC,-22.93235,-43.719091999999996,BRL,0.2932,3.4191
2615,Professor Urbano Ernesto Stumpf,Sao Jose Dos Campos,brazil,SJK,SBSJ,-23.228172,-45.862739000000005,BRL,0.2932,3.4191
2616,Marechal Cunha Machado Intl,Sao Luis,brazil,SLZ,SBSL,-2.5853610000000002,-44.234139,BRL,0.2932,3.4191
2618,Congonhas,Sao Paulo,brazil,CGH,SBSP,-23.626692000000002,-46.655375,BRL,0.2932,3.4191
2619,Sao Jose Do Rio Preto,Sao Jose Do Rio Preto,brazil,SJP,SBSR,-20.816567000000003,-49.406511,BRL,0.2932,3.4191
2620,Base Aerea De Santos,Santos,brazil,SSZ,SBST,-23.925206,-46.2875,BRL,0.2932,3.4191
2621,Deputado Luis Eduardo Magalhaes,Salvador,brazil,SSA,SBSV,-12.910994,-38.331044,BRL,0.2932,3.4191
2622,Trombetas,Oriximina,brazil,TMT,SBTB,-1.4896,-56.396803000000006,BRL,0.2932,3.4191
2623,Senador Petronio Portella,Teresina,brazil,THE,SBTE,-5.0599419999999995,-42.823478,BRL,0.2932,3.4191
2624,Tefe,Tefe,brazil,TFF,SBTF,-3.382944,-64.724056,BRL,0.2932,3.4191
2628,Tabatinga,Tabatinga,brazil,TBT,SBTT,-4.255669,-69.935828,BRL,0.2932,3.4191
2629,Tucurui,Tucurui,brazil,TUR,SBTU,-3.7860080000000003,-49.720267,BRL,0.2932,3.4191
2631,Paulo Afonso,Paulo Alfonso,brazil,PAV,SBUF,-9.400878,-38.250575,BRL,0.2932,3.4191
2632,Rubem Berta,Uruguaiana,brazil,URG,SBUG,-29.782178000000002,-57.038189,BRL,0.2932,3.4191
2633,Ten Cel Av Cesar Bombonato,Uberlandia,brazil,UDI,SBUL,-18.882844,-48.225594,BRL,0.2932,3.4191
2635,Uberaba,Uberaba,brazil,UBA,SBUR,-19.765,-47.964778,BRL,0.2932,3.4191
2636,Major Brigadeiro Trompowsky,Varginha,brazil,VAG,SBVG,-21.590067,-45.473341999999995,BRL,0.2932,3.4191
2637,Vilhena,Vilhena,brazil,BVH,SBVH,-12.694375,-60.098268999999995,BRL,0.2932,3.4191
2638,Goiabeiras,Vitoria,brazil,VIX,SBVT,-20.258056,-40.286389,BRL,0.2932,3.4191
2640,Campo Fontenelle,Piracununga,brazil,QPS,SBYS,-21.984561,-47.334764,BRL,0.2932,3.4191
4092,Santarem,Santarem,brazil,STM,SBSN,-2.422431,-54.792789,BRL,0.2932,3.4191
4209,Aeroporto de Porto Seguro,Porto Seguro,brazil,BPS,SBPS,-16.438610999999998,-39.080833,BRL,0.2932,3.4191
4214,Palmas,Palmas,brazil,PMW,SBPJ,-10.241667,-48.352779999999996,BRL,0.2932,3.4191
4215,Caldas Novas,Caldas Novas,brazil,CLV,SBCN,-17.7267,-48.6114,BRL,0.2932,3.4191
6073,Ji-Paraná Airport,Ji-Paraná,brazil,JPR,SWJI,-10.8708,-61.8465,BRL,0.2932,3.4191
6062,Mucuri Airport,Mucuri,brazil,MVS,SNMU,-18.0489,-39.8642,BRL,0.2932,3.4191
6041,Toledo Airport,Toledo,brazil,TOW,SBTD,-24.6863,-53.6975,BRL,0.2932,3.4191
6040,Santa Maria Airport,Santa Maria,brazil,RIA,SBSM,-29.711358,-53.688153,BRL,0.2932,3.4191
6036,Chapada Diamantina Airport,Lençóis,brazil,LEC,SBLE,-12.4823,-41.277,BRL,0.2932,3.4191
6034,Orlando Bezerra de Menezes Airport,Juazeiro Do Norte,brazil,JDO,SBJU,-7.218958,-39.2701,BRL,0.2932,3.4191
6069,Santa Rosa Airport,Santa Rosa,brazil,SRA,SSZR,-27.9067,-54.5204,BRL,0.2932,3.4191
6044,Sorocaba Airport,Sorocaba,brazil,SOD,SDCO,-23.478,-47.49,BRL,0.2932,3.4191
6039,Vitória da Conquista Airport,Vitória Da Conquista,brazil,VDC,SBQV,-14.862760999999999,-40.863106,BRL,0.2932,3.4191
6038,Marília Airport,Marília,brazil,MII,SBML,-22.196892000000002,-49.9264,BRL,0.2932,3.4191
6037,Macaé Airport,Macaé,brazil,MEA,SBME,-22.343000000000004,-41.766000000000005,BRL,0.2932,3.4191
6477,Erechim Airport,Erechim,brazil,ERM,SSER,-27.6619,-52.2683,BRL,0.2932,3.4191
6913,Aeroporto Prefeito Octavio de Almeida Neves,Sao Joao del Rei,brazil,JDR,\N,-21.0864,-44.2258,BRL,0.2932,3.4191
6735,Governador Valadares Airport,Governador Valadares,brazil,GVR,SBGV,-18.8952,-41.9822,BRL,0.2932,3.4191
7125,Amarais Airport,Campinas,brazil,CPQ,SDAM,-22.8592,-47.1082,BRL,0.2932,3.4191
7364,Cabo Frio International Airport,Cabo Frio,brazil,CFB,SBCB,-22.921667000000003,-42.074166999999996,BRL,0.2932,3.4191
7367,Sinop Airport,Sinop,brazil,OPS,SWSI,-11.885,-55.586000000000006,BRL,0.2932,3.4191
7368,Gurupi Airport,Gurupi,brazil,GRP,SWGI,-11.728889,-49.068889,BRL,0.2932,3.4191
7369,Campo Alegre Airport,Santana do Araguaia,brazil,CMP,SNKE,-9.505,-50.625,BRL,0.2932,3.4191
7370,Breves Airport,Breves,brazil,BVS,SNVS,-1.6819439999999999,-50.48,BRL,0.2932,3.4191
7371,Soure Airport,Soure,brazil,SFK,SNSW,-0.7169439999999999,-48.522778,BRL,0.2932,3.4191
7372,Julio Belem Airport,Parintins,brazil,PIN,SWPI,-2.6277779999999997,-56.73583299999999,BRL,0.2932,3.4191
7373,Barreiras Airport,Barreiras,brazil,BRA,SNBR,-12.083333,-45.0,BRL,0.2932,3.4191
7374,Confresa Airport,Santa Terezinha,brazil,STZ,SWST,-10.47,-50.502778,BRL,0.2932,3.4191
7375,Minacu Airport,Minacu,brazil,MQH,SBMC,-13.526944,-48.220556,BRL,0.2932,3.4191
7376,Araguaina Airport,Araguaina,brazil,AUX,SWGN,-7.228333,-48.240833,BRL,0.2932,3.4191
7377,Novo Aripuana Airport,Novo Aripuana,brazil,NVP,SWNA,-5.121389,-60.380556000000006,BRL,0.2932,3.4191
7378,Bom Futuro Airport,Lucas do Rio Verde,brazil,LVR,SWFE,-13.05,-55.910833,BRL,0.2932,3.4191
7379,Franca Airport,Franca,brazil,FRC,SIMK,-20.538611,-47.400833,BRL,0.2932,3.4191
7380,Dourados Airport,Dourados,brazil,DOU,SSDO,-22.220833,-54.80583299999999,BRL,0.2932,3.4191
7381,Labrea Airport,Labrea,brazil,LBR,SWLB,-7.258889,-64.79777800000001,BRL,0.2932,3.4191
7382,Rondonopolis Airport,Rondonopolis,brazil,ROO,SWRD,-16.466667,-54.63333299999999,BRL,0.2932,3.4191
7383,Tancredo Thomaz de Faria Airport,Guarapuava,brazil,GPB,SBGU,-25.383333,-51.45,BRL,0.2932,3.4191
7384,Joacaba Airport,Joacaba,brazil,JCB,SSJA,-27.172778000000005,-51.500833,BRL,0.2932,3.4191
7394,General leite de Castro Airport,Rio Verde,brazil,RVD,SWLC,-17.790278,-50.918333000000004,BRL,0.2932,3.4191
7395,Araxa Airport,Araxa,brazil,AAX,SBAX,-19.563056,-46.960278,BRL,0.2932,3.4191
7396,Maues Airport,Maues,brazil,MBZ,SWMW,-3.383611,-57.718610999999996,BRL,0.2932,3.4191
7397,Borba Airport,Borba,brazil,RBB,SWBR,-4.387778,-59.593889000000004,BRL,0.2932,3.4191
7398,Coari Airport,Coari,brazil,CIZ,SWKO,-4.085,-63.14083299999999,BRL,0.2932,3.4191
7399,Barcelos Airport,Barcelos,brazil,BAZ,SWBC,-0.975,-62.923889,BRL,0.2932,3.4191
7406,Diamantino Airport,Diamantino,brazil,DMT,SWDM,-14.408889000000002,-56.44583299999999,BRL,0.2932,3.4191
7407,Guanambi Airport,Guanambi,brazil,GNM,SNGI,-14.216667000000001,-42.783333,BRL,0.2932,3.4191
7529,Ponta Pelada Airport,Manaus,brazil,PLL,\N,-3.14604,-59.9863,BRL,0.2932,3.4191
7530,Sao Gabriel da Cachoeira Airport,Sao Gabriel da Cachoeira,brazil,SJL,\N,-0.148056,-66.9858,BRL,0.2932,3.4191
7532,Carajas Airport,Parauapebas,brazil,CKS,SBCJ,-6.1178099999999995,-50.0035,BRL,0.2932,3.4191
7534,Cachimbo,Itaituba,brazil,ITB,\N,-4.2446,-56.003840000000004,BRL,0.2932,3.4191
7671,Valenca Airport,Valenca,brazil,VAL,SNVB,-13.2965,-38.9924,BRL,0.2932,3.4191
7672,Dix Sept Rosado Airport,Mossoro,brazil,MVF,SBMW,-5.201919999999999,-37.3643,BRL,0.2932,3.4191
7673,Caruaru Airport,Caruaru,brazil,CAU,SNRU,-8.28239,-36.0135,BRL,0.2932,3.4191
7675,Aeroclube de Nova Iguacu,Nova Iguacu,brazil,QNV,SDNY,-22.7453,-43.4603,BRL,0.2932,3.4191
8152,Aeroporto Blumenau,BLUMENAU,brazil,BNU,SSBL,-26.834239,-49.091696,BRL,0.2932,3.4191
8180,Zona da Mata Regional Airport,Juiz de Fora,brazil,IZA,SDZY,-21.513055800000004,-43.17305756,BRL,0.2932,3.4191
8237,Patos de Minas Airport,Patos de Minas,brazil,POJ,SNPD,-18.672778,-46.491111,BRL,0.2932,3.4191
8238,Bauru-Arealva,Bauru,brazil,JTC,SJTC,-22.157778,-49.068333,BRL,0.2932,3.4191
8239,Ourilandia do Norte Airport,Ourilandia do Norte,brazil,OIA,SDOW,-6.763056,-51.05,BRL,0.2932,3.4191
8240,Redencao Airport,Redencao,brazil,RDC,SNDC,-8.033333,-49.98,BRL,0.2932,3.4191
8241,Sao Felix do Xingu Airport,Sao Felix do Xingu,brazil,SXX,SNFX,-6.641389,-51.952222,BRL,0.2932,3.4191
8242,Bonito Airport,Bointo,brazil,BYO,SJDB,-21.247222,-56.4525,BRL,0.2932,3.4191
8243,Sao Felix do Araguaia Airport,Sao Felix do Araguaia,brazil,SXO,SWFX,-11.6325,-50.689444,BRL,0.2932,3.4191
8244,Carlos Alberto da Costa Neves Airport,Cacador,brazil,CFC,SBCD,-26.788333,-50.939721999999996,BRL,0.2932,3.4191
8245,Carauari Airport,Carauari,brazil,CAF,SWCA,-4.871389,-66.8975,BRL,0.2932,3.4191
8247,Amaury Feitosa Tomaz Airport,Eirunepe,brazil,ERN,SWEI,-6.639444,-69.879722,BRL,0.2932,3.4191
8248,Concordia Airport,Concordia,brazil,CCI,SSCK,-27.180556,-52.052778,BRL,0.2932,3.4191
8249,Paulo Abdala Airport,Francisco Beltrao,brazil,FBE,SSFB,-26.059167000000002,-53.06333299999999,BRL,0.2932,3.4191
8250,Confresa Airport,Confresa,brazil,CFO,SJHG,-10.633611,-51.567221999999994,BRL,0.2932,3.4191
8253,Orlando de Carvalho Airport,Umuarama,brazil,UMU,SSUM,-23.798610999999998,-53.313611,BRL,0.2932,3.4191
8254,Diamantina Airport,Diamantina,brazil,DTI,SNDT,-18.231944,-43.650278,BRL,0.2932,3.4191
8255,Fonte Boa Airport,Fonte Boa,brazil,FBA,SWOB,-2.5325,-66.083333,BRL,0.2932,3.4191
8256,Senadora Eunice Micheles Airport,Sao Paulo de Olivenca,brazil,OLC,SDCG,-3.465556,-68.91888900000001,BRL,0.2932,3.4191
8257,Humaita Airport,Humaita,brazil,HUW,SWHT,-7.532222,-63.072222,BRL,0.2932,3.4191
8258,Tapuruquara Airport,Santa Isabel do Rio Negro,brazil,IRZ,SWTP,-0.416944,-65.033889,BRL,0.2932,3.4191
8259,Oriximina Airport,Oriximina,brazil,ORX,SNOX,-1.7141669999999998,-55.836110999999995,BRL,0.2932,3.4191
8260,Una-Comandatuba Airport,Una,brazil,UNA,SBTC,-15.355278,-38.998889,BRL,0.2932,3.4191
8952,Botucatu,Botucatu,brazil,QCJ,SDBK,-22.938000000000002,-48.467,BRL,0.2932,3.4191
8954,Sao Carlos TAM,Sao Carlos,brazil,QSC,SDSC,-21.875,-47.903999999999996,BRL,0.2932,3.4191
9089,Aeroporto Estadual Arthur Siqueira,Braganca Paulista,brazil,BJP,SBBP,-22.979167,-46.5375,BRL,0.2932,3.4191
9389,Pampulha,Belo Horizonte,brazil,BHZ,\N,-19.8517,-43.9508,BRL,0.2932,3.4191
2903,Terrance B Lettsome Intl,Tortola,"virgin islands, british",EIS,TUPJ,18.444834,-64.542975,USD,0.9488,1.0541
6080,Virgin Gorda Airport,Spanish Town,"virgin islands, british",VIJ,TUPW,18.4464,-64.4275,USD,0.9488,1.0541
3272,Brunei Intl,Bandar Seri Begawan,brunei,BWN,WBSB,4.9442,114.928353,BND,0.6924,1.4946
1191,Burgas,Bourgas,bulgaria,BOJ,LBBG,42.569583,27.515235999999998,BGN,0.5117,1.9551
1192,Gorna Oryahovitsa,Gorna Orechovica,bulgaria,GOZ,LBGO,43.151444,25.712889,BGN,0.5117,1.9551
1193,Plovdiv,Plovdiv,bulgaria,PDV,LBPD,42.067806,24.850832999999998,BGN,0.5117,1.9551
1194,Sofia,Sofia,bulgaria,SOF,LBSF,42.695194,23.406167,BGN,0.5117,1.9551
1196,Varna,Varna,bulgaria,VAR,LBWN,43.232071999999995,27.825105999999998,BGN,0.5117,1.9551
4337,Uzundzhovo,Haskovo,bulgaria,HKV,LB14,41.976375,25.589817,BGN,0.5117,1.9551
246,Ouagadougou,Ouagadougou,burkina faso,OUA,DFFD,12.353194,-1.512417,XOF,0.001524,655.957
247,Bobo Dioulasso,Bobo-dioulasso,burkina faso,BOY,DFOO,11.160055999999999,-4.3309690000000005,XOF,0.001524,655.957
1120,Bujumbura Intl,Bujumbura,burundi,BJM,HBBA,-3.3240190000000003,29.318519000000002,BIF,0.0006146,1684.06
3034,Phnom Penh Intl,Phnom-penh,cambodia,PNH,VDPP,11.546555999999999,104.844139,KHR,0.00023879999999999998,4343.82
3035,Siem Reap,Siem-reap,cambodia,REP,VDSR,13.410666,103.81284000000001,KHR,0.00023879999999999998,4343.82
4093,Sihanoukville,Sihanoukville,cambodia,KOS,VDSV,10.579686,103.63682800000001,KHR,0.00023879999999999998,4343.82
4295,Ratanakiri,Ratanakiri,cambodia,RBE,\N,13.73,106.98700000000001,KHR,0.00023879999999999998,4343.82
6171,Battambang Airport,Battambang,cambodia,BBM,VDBG,13.0956,103.22399999999999,KHR,0.00023879999999999998,4343.82
8966,Kratie Airport,Kratie,cambodia,KTI,VDKT,12.4905,106.055,KHR,0.00023879999999999998,4343.82
896,Tiko,Tiko,cameroon,TKC,FKKC,4.089192,9.360528,XAF,0.001524,655.957
897,Douala,Douala,cameroon,DLA,FKKD,4.006081,9.719481,XAF,0.001524,655.957
898,Salak,Maroua,cameroon,MVR,FKKL,10.451392,14.257360999999998,XAF,0.001524,655.957
899,Foumban Nkounja,Foumban,cameroon,FOM,FKKM,5.636919,10.750817,XAF,0.001524,655.957
900,Ngaoundere,N'gaoundere,cameroon,NGE,FKKN,7.357011,13.559242000000001,XAF,0.001524,655.957
901,Garoua,Garoua,cameroon,GOU,FKKR,9.335892,13.370103,XAF,0.001524,655.957
902,Bafoussam,Bafoussam,cameroon,BFX,FKKU,5.536919,10.354583,XAF,0.001524,655.957
903,Bamenda,Bamenda,cameroon,BPC,FKKV,6.039239,10.122639,XAF,0.001524,655.957
904,Yaounde Ville,Yaounde,cameroon,YAO,FKKY,3.836039,11.523461,XAF,0.001524,655.957
4161,Yaounde Nsimalen,Yaounde,cameroon,NSI,FKYS,3.722556,11.553269,XAF,0.001524,655.957
21,Sault Ste Marie,Sault Sainte Marie,canada,YAM,CYAM,46.485001000000004,-84.509445,CAD,0.7423,1.3477
22,Winnipeg St Andrews,Winnipeg,canada,YAV,CYAV,50.056389,-97.0325,CAD,0.7423,1.3477
23,Shearwater,Halifax,canada,YAW,CYAW,44.639721,-63.499444,CAD,0.7423,1.3477
24,St Anthony,St. Anthony,canada,YAY,CYAY,51.391944,-56.083056000000006,CAD,0.7423,1.3477
25,Tofino,Tofino,canada,YAZ,CYAZ,49.082221999999994,-125.7725,CAD,0.7423,1.3477
26,Kugaaruk,Pelly Bay,canada,YBB,CYBB,68.534444,-89.80805600000001,CAD,0.7423,1.3477
27,Baie Comeau,Baie Comeau,canada,YBC,CYBC,49.1325,-68.204444,CAD,0.7423,1.3477
28,Bagotville,Bagotville,canada,YBG,CYBG,48.330555,-70.996391,CAD,0.7423,1.3477
29,Baker Lake,Baker Lake,canada,YBK,CYBK,64.298889,-96.07777800000001,CAD,0.7423,1.3477
30,Campbell River,Campbell River,canada,YBL,CYBL,49.950832,-125.27083300000001,CAD,0.7423,1.3477
31,Brandon Muni,Brandon,canada,YBR,CYBR,49.91,-99.951944,CAD,0.7423,1.3477
32,Cambridge Bay,Cambridge Bay,canada,YCB,CYCB,69.10805500000001,-105.138333,CAD,0.7423,1.3477
33,Nanaimo,Nanaimo,canada,YCD,CYCD,49.052333000000004,-123.870167,CAD,0.7423,1.3477
34,Castlegar,Castlegar,canada,YCG,CYCG,49.296389000000005,-117.6325,CAD,0.7423,1.3477
35,Miramichi,Chatham,canada,YCH,CYCH,47.007778,-65.449167,CAD,0.7423,1.3477
36,Charlo,Charlo,canada,YCL,CYCL,47.990833,-66.330278,CAD,0.7423,1.3477
37,Kugluktuk,Coppermine,canada,YCO,CYCO,67.81666700000001,-115.14388899999999,CAD,0.7423,1.3477
38,Coronation,Coronation,canada,YCT,CYCT,52.075001,-111.445278,CAD,0.7423,1.3477
39,Chilliwack,Chilliwack,canada,YCW,CYCW,49.152778999999995,-121.93888999999999,CAD,0.7423,1.3477
40,Clyde River,Clyde River,canada,YCY,CYCY,70.486111,-68.516667,CAD,0.7423,1.3477
41,Fairmont Hot Springs,Coral Harbour,canada,YZS,CYCZ,64.193333,-83.359444,CAD,0.7423,1.3477
42,Dawson City,Dawson,canada,YDA,CYDA,64.043056,-139.127778,CAD,0.7423,1.3477
43,Burwash,Burwash,canada,YDB,CYDB,61.371111,-139.040556,CAD,0.7423,1.3477
44,Princeton,Princeton,canada,YDC,CYDC,49.468056,-120.511389,CAD,0.7423,1.3477
45,Deer Lake,Deer Lake,canada,YDF,CYDF,49.210833,-57.391388,CAD,0.7423,1.3477
46,Dease Lake,Dease Lake,canada,YDL,CYDL,58.422222,-130.032222,CAD,0.7423,1.3477
47,Dauphin Barker,Dauphin,canada,YDN,CYDN,51.100834000000006,-100.0525,CAD,0.7423,1.3477
48,Dawson Creek,Dawson Creek,canada,YDQ,CYDQ,55.742332999999995,-120.18299999999999,CAD,0.7423,1.3477
49,Edmonton Intl,Edmonton,canada,YEG,CYEG,53.309723,-113.579722,CAD,0.7423,1.3477
50,Arviat,Eskimo Point,canada,YEK,CYEK,61.094166,-94.070833,CAD,0.7423,1.3477
51,Estevan,Estevan,canada,YEN,CYEN,49.210278,-102.96583299999999,CAD,0.7423,1.3477
52,Edson,Edson,canada,YET,CYET,53.578888,-116.465,CAD,0.7423,1.3477
53,Eureka,Eureka,canada,YEU,CYEU,79.994722,-85.814167,CAD,0.7423,1.3477
54,Inuvik Mike Zubko,Inuvik,canada,YEV,CYEV,68.304167,-133.482778,CAD,0.7423,1.3477
55,Iqaluit,Iqaluit,canada,YFB,CYFB,63.75639,-68.555832,CAD,0.7423,1.3477
56,Fredericton,Fredericton,canada,YFC,CYFC,45.868889,-66.537222,CAD,0.7423,1.3477
58,Flin Flon,Flin Flon,canada,YFO,CYFO,54.67805500000001,-101.681667,CAD,0.7423,1.3477
59,Fort Resolution,Fort Resolution,canada,YFR,CYFR,61.180831999999995,-113.689722,CAD,0.7423,1.3477
60,Fort Simpson,Fort Simpson,canada,YFS,CYFS,61.760153,-121.236525,CAD,0.7423,1.3477
61,Kingston,Kingston,canada,YGK,CYGK,44.225277,-76.596944,CAD,0.7423,1.3477
62,La Grande Riviere,La Grande Riviere,canada,YGL,CYGL,53.625278,-77.704167,CAD,0.7423,1.3477
63,Gaspe,Gaspe,canada,YGP,CYGP,48.775278,-64.478611,CAD,0.7423,1.3477
64,Geraldton Greenstone Regional,Geraldton,canada,YGQ,CYGQ,49.778332,-86.93944499999999,CAD,0.7423,1.3477
65,Iles De La Madeleine,Iles De La Madeleine,canada,YGR,CYGR,47.424721000000005,-61.77805600000001,CAD,0.7423,1.3477
66,Hudson Bay,Hudson Bay,canada,YHB,CYHB,52.816666000000005,-102.31139,CAD,0.7423,1.3477
67,Dryden Rgnl,Dryden,canada,YHD,CYHD,49.831666999999996,-92.744167,CAD,0.7423,1.3477
68,Ulukhaktok Holman,Holman Island,canada,YHI,CYHI,70.762778,-117.80611100000002,CAD,0.7423,1.3477
69,Gjoa Haven,Gjoa Haven,canada,YHK,CYHK,68.63555600000001,-95.849722,CAD,0.7423,1.3477
70,Hamilton,Hamilton,canada,YHM,CYHM,43.173611,-79.935,CAD,0.7423,1.3477
71,St Hubert,Montreal,canada,YHU,CYHU,45.5175,-73.416944,CAD,0.7423,1.3477
72,Hay River,Hay River,canada,YHY,CYHY,60.839721999999995,-115.78277800000001,CAD,0.7423,1.3477
73,Halifax Intl,Halifax,canada,YHZ,CYHZ,44.880833,-63.50861,CAD,0.7423,1.3477
74,Atikokan Muni,Atikokan,canada,YIB,CYIB,48.773888,-91.638611,CAD,0.7423,1.3477
75,Pond Inlet,Pond Inlet,canada,YIO,CYIO,72.683334,-77.966667,CAD,0.7423,1.3477
76,St Jean,St. Jean,canada,YJN,CYJN,45.294445,-73.281111,CAD,0.7423,1.3477
77,Stephenville,Stephenville,canada,YJT,CYJT,48.544167,-58.549999,CAD,0.7423,1.3477
78,Kamloops,Kamloops,canada,YKA,CYKA,50.702222,-120.44444399999999,CAD,0.7423,1.3477
79,Waterloo,Waterloo,canada,YKF,CYKF,43.460833,-80.37861099999999,CAD,0.7423,1.3477
80,Schefferville,Schefferville,canada,YKL,CYKL,54.805278,-66.805278,CAD,0.7423,1.3477
81,Kindersley,Kindersley,canada,YKY,CYKY,51.5175,-109.180833,CAD,0.7423,1.3477
82,Buttonville Muni,Toronto,canada,YKZ,CYKZ,43.862221000000005,-79.37,CAD,0.7423,1.3477
83,Chapleau,Chapleau,canada,YLD,CYLD,47.82,-83.34666700000001,CAD,0.7423,1.3477
84,Meadow Lake,Meadow Lake,canada,YLJ,CYLJ,54.125278,-108.522778,CAD,0.7423,1.3477
85,Lloydminster,Lloydminster,canada,YLL,CYLL,53.309166000000005,-110.0725,CAD,0.7423,1.3477
86,Alert,Alert,canada,YLT,CYLT,82.517778,-62.280556000000004,CAD,0.7423,1.3477
87,Kelowna,Kelowna,canada,YLW,CYLW,49.956112,-119.377778,CAD,0.7423,1.3477
88,Mayo,Mayo,canada,YMA,CYMA,63.616389,-135.868333,CAD,0.7423,1.3477
89,Moose Jaw Air Vice Marshal C M Mcewen,Moose Jaw,canada,YMJ,CYMJ,50.330278,-105.55916699999999,CAD,0.7423,1.3477
90,Fort Mcmurray,Fort Mcmurray,canada,YMM,CYMM,56.653332999999996,-111.221944,CAD,0.7423,1.3477
91,Moosonee,Moosonee,canada,YMO,CYMO,51.291111,-80.607778,CAD,0.7423,1.3477
92,Maniwaki,Maniwaki,canada,YMW,CYMW,46.272778,-75.99055600000001,CAD,0.7423,1.3477
93,Montreal Intl Mirabel,Montreal,canada,YMX,CYMX,45.681944,-74.005278,CAD,0.7423,1.3477
94,Natashquan,Natashquan,canada,YNA,CYNA,50.19,-61.789167000000006,CAD,0.7423,1.3477
95,Gatineau,Gatineau,canada,YND,CYND,45.521694000000004,-75.56358900000001,CAD,0.7423,1.3477
96,Matagami,Matagami,canada,YNM,CYNM,49.761666999999996,-77.802778,CAD,0.7423,1.3477
97,Old Crow,Old Crow,canada,YOC,CYOC,67.57055600000001,-139.839167,CAD,0.7423,1.3477
98,Cold Lake,Cold Lake,canada,YOD,CYOD,54.404999,-110.279444,CAD,0.7423,1.3477
99,High Level,High Level,canada,YOJ,CYOJ,58.621389,-117.164722,CAD,0.7423,1.3477
100,Ottawa Macdonald Cartier Intl,Ottawa,canada,YOW,CYOW,45.3225,-75.669167,CAD,0.7423,1.3477
101,Prince Albert Glass Field,Prince Albert,canada,YPA,CYPA,53.214167,-105.67277800000001,CAD,0.7423,1.3477
102,Peace River,Peace River,canada,YPE,CYPE,56.226943999999996,-117.447222,CAD,0.7423,1.3477
103,Southport,Portage-la-prairie,canada,YPG,CYPG,49.903056,-98.273889,CAD,0.7423,1.3477
105,Pickle Lake,Pickle Lake,canada,YPL,CYPL,51.446388,-90.214167,CAD,0.7423,1.3477
106,Port Menier,Port Menier,canada,YPN,CYPN,49.836389000000004,-64.288611,CAD,0.7423,1.3477
107,Peterborough,Peterborough,canada,YPQ,CYPQ,44.23,-78.363333,CAD,0.7423,1.3477
108,Prince Rupert,Prince Pupert,canada,YPR,CYPR,54.28611,-130.44472199999998,CAD,0.7423,1.3477
109,Fort Chipewyan,Fort Chipewyan,canada,YPY,CYPY,58.767223,-111.117222,CAD,0.7423,1.3477
110,Muskoka,Muskoka,canada,YQA,CYQA,44.974722,-79.303333,CAD,0.7423,1.3477
111,Quebec Jean Lesage Intl,Quebec,canada,YQB,CYQB,46.791111,-71.393333,CAD,0.7423,1.3477
112,Red Deer Regional,Red Deer Industrial,canada,YQF,CYQF,52.182221999999996,-113.894444,CAD,0.7423,1.3477
113,Windsor,Windsor,canada,YQG,CYQG,42.275556,-82.955556,CAD,0.7423,1.3477
114,Watson Lake,Watson Lake,canada,YQH,CYQH,60.116389,-128.8225,CAD,0.7423,1.3477
115,Kenora,Kenora,canada,YQK,CYQK,49.788334000000006,-94.363056,CAD,0.7423,1.3477
116,Lethbridge,Lethbridge,canada,YQL,CYQL,49.630278000000004,-112.799722,CAD,0.7423,1.3477
117,Greater Moncton Intl,Moncton,canada,YQM,CYQM,46.112221000000005,-64.678611,CAD,0.7423,1.3477
119,Comox,Comox,canada,YQQ,CYQQ,49.710833,-124.88666699999999,CAD,0.7423,1.3477
120,Regina Intl,Regina,canada,YQR,CYQR,50.431944,-104.66583299999999,CAD,0.7423,1.3477
121,Thunder Bay,Thunder Bay,canada,YQT,CYQT,48.371944,-89.32388900000001,CAD,0.7423,1.3477
122,Grande Prairie,Grande Prairie,canada,YQU,CYQU,55.179722,-118.885,CAD,0.7423,1.3477
123,Yorkton Muni,Yorkton,canada,YQV,CYQV,51.264721,-102.461667,CAD,0.7423,1.3477
124,North Battleford,North Battleford,canada,YQW,CYQW,52.769167,-108.24361,CAD,0.7423,1.3477
125,Gander Intl,Gander,canada,YQX,CYQX,48.936944,-54.568056000000006,CAD,0.7423,1.3477
126,Sydney,Sydney,canada,YQY,CYQY,46.161388,-60.047779000000006,CAD,0.7423,1.3477
127,Quesnel,Quesnel,canada,YQZ,CYQZ,53.026112,-122.510278,CAD,0.7423,1.3477
128,Resolute Bay,Resolute,canada,YRB,CYRB,74.716944,-94.969444,CAD,0.7423,1.3477
129,Riviere Du Loup,Riviere Du Loup,canada,YRI,CYRI,47.764444,-69.584722,CAD,0.7423,1.3477
130,Roberval,Roberval,canada,YRJ,CYRJ,48.52,-72.265556,CAD,0.7423,1.3477
131,Rocky Mountain House,Rocky Mountain House,canada,YRM,CYRM,52.429722,-114.90416699999999,CAD,0.7423,1.3477
132,Rankin Inlet,Rankin Inlet,canada,YRT,CYRT,62.81139,-92.115833,CAD,0.7423,1.3477
133,Sudbury,Sudbury,canada,YSB,CYSB,46.625,-80.798889,CAD,0.7423,1.3477
134,Sherbrooke,Sherbrooke,canada,YSC,CYSC,45.438611,-71.691389,CAD,0.7423,1.3477
135,Saint John,St. John,canada,YSJ,CYSJ,45.316111,-65.89027800000001,CAD,0.7423,1.3477
136,Fort Smith,Fort Smith,canada,YSM,CYSM,60.020278000000005,-111.96194399999999,CAD,0.7423,1.3477
137,Nanisivik,Nanisivik,canada,YSR,CYSR,72.982222,-84.61361099999999,CAD,0.7423,1.3477
138,Summerside,Summerside,canada,YSU,CYSU,46.440556,-63.833611,CAD,0.7423,1.3477
139,Sachs Harbour,Sachs Harbour,canada,YSY,CYSY,71.993889,-125.2425,CAD,0.7423,1.3477
140,Cape Dorset,Cape Dorset,canada,YTE,CYTE,64.23,-76.526667,CAD,0.7423,1.3477
141,Thompson,Thompson,canada,YTH,CYTH,55.801111,-97.864166,CAD,0.7423,1.3477
142,Trenton,Trenton,canada,YTR,CYTR,44.118889,-77.528056,CAD,0.7423,1.3477
143,Timmins,Timmins,canada,YTS,CYTS,48.569721,-81.376667,CAD,0.7423,1.3477
144,City Centre,Toronto,canada,YTZ,CYTZ,43.627499,-79.396167,CAD,0.7423,1.3477
145,Tuktoyaktuk,Tuktoyaktuk,canada,YUB,CYUB,69.433334,-133.026389,CAD,0.7423,1.3477
146,Pierre Elliott Trudeau Intl,Montreal,canada,YUL,CYUL,45.470556,-73.740833,CAD,0.7423,1.3477
147,Repulse Bay,Repulse Bay,canada,YUT,CYUT,66.521389,-86.224722,CAD,0.7423,1.3477
148,Hall Beach,Hall Beach,canada,YUX,CYUX,68.776111,-81.243611,CAD,0.7423,1.3477
149,Rouyn Noranda,Rouyn,canada,YUY,CYUY,48.206111,-78.83555600000001,CAD,0.7423,1.3477
150,La Ronge,La Ronge,canada,YVC,CYVC,55.15139,-105.261944,CAD,0.7423,1.3477
151,Vermilion,Vermillion,canada,YVG,CYVG,53.355833,-110.82388999999999,CAD,0.7423,1.3477
152,Qikiqtarjuaq,Broughton Island,canada,YVM,CYVM,67.545833,-64.031389,CAD,0.7423,1.3477
153,Val D Or,Val D'or,canada,YVO,CYVO,48.053333,-77.78277800000001,CAD,0.7423,1.3477
154,Kuujjuaq,Quujjuaq,canada,YVP,CYVP,58.096111,-68.42694399999999,CAD,0.7423,1.3477
155,Norman Wells,Norman Wells,canada,YVQ,CYVQ,65.281617,-126.79821899999999,CAD,0.7423,1.3477
156,Vancouver Intl,Vancouver,canada,YVR,CYVR,49.193889,-123.184444,CAD,0.7423,1.3477
157,Buffalo Narrows,Buffalo Narrows,canada,YVT,CYVT,55.84194399999999,-108.4175,CAD,0.7423,1.3477
158,Wiarton,Wiarton,canada,YVV,CYVV,44.745834,-81.107222,CAD,0.7423,1.3477
159,Petawawa,Petawawa,canada,YWA,CYWA,45.952221,-77.319168,CAD,0.7423,1.3477
160,Winnipeg Intl,Winnipeg,canada,YWG,CYWG,49.910036,-97.239886,CAD,0.7423,1.3477
161,Wabush,Wabush,canada,YWK,CYWK,52.921943999999996,-66.86444399999999,CAD,0.7423,1.3477
162,Williams Lake,Williams Lake,canada,YWL,CYWL,52.183056,-122.05416699999999,CAD,0.7423,1.3477
163,Wrigley,Wrigley,canada,YWY,CYWY,63.209444,-123.43666699999999,CAD,0.7423,1.3477
164,Canadian Rockies Intl,Cranbrook,canada,YXC,CYXC,49.612221999999996,-115.781944,CAD,0.7423,1.3477
165,Edmonton City Centre,Edmonton,canada,YXD,CYXD,53.5725,-113.520556,CAD,0.7423,1.3477
166,Saskatoon J G Diefenbaker Intl,Saskatoon,canada,YXE,CYXE,52.170834,-106.699722,CAD,0.7423,1.3477
167,Medicine Hat,Medicine Hat,canada,YXH,CYXH,50.01889,-110.72083300000001,CAD,0.7423,1.3477
168,Fort St John,Fort Saint John,canada,YXJ,CYXJ,56.23805600000001,-120.740278,CAD,0.7423,1.3477
169,Sioux Lookout,Sioux Lookout,canada,YXL,CYXL,50.113889,-91.90527800000001,CAD,0.7423,1.3477
170,Pangnirtung,Pangnirtung,canada,YXP,CYXP,66.145,-65.713611,CAD,0.7423,1.3477
171,Timiskaming Rgnl,Earlton,canada,YXR,CYXR,47.695,-79.848889,CAD,0.7423,1.3477
172,Prince George,Prince George,canada,YXS,CYXS,53.889444,-122.67888899999998,CAD,0.7423,1.3477
173,Terrace,Terrace,canada,YXT,CYXT,54.46850799999999,-128.57621899999998,CAD,0.7423,1.3477
174,London,London,canada,YXU,CYXU,43.033056,-81.151111,CAD,0.7423,1.3477
175,Abbotsford,Abbotsford,canada,YXX,CYXX,49.025278,-122.360556,CAD,0.7423,1.3477
176,Whitehorse Intl,Whitehorse,canada,YXY,CYXY,60.709553,-135.06726899999998,CAD,0.7423,1.3477
177,North Bay,North Bay,canada,YYB,CYYB,46.363611,-79.42277800000001,CAD,0.7423,1.3477
178,Calgary Intl,Calgary,canada,YYC,CYYC,51.113888,-114.020278,CAD,0.7423,1.3477
179,Smithers,Smithers,canada,YYD,CYYD,54.824721999999994,-127.182778,CAD,0.7423,1.3477
180,Fort Nelson,Fort Nelson,canada,YYE,CYYE,58.836389000000004,-122.596944,CAD,0.7423,1.3477
181,Penticton,Penticton,canada,YYF,CYYF,49.463056,-119.602222,CAD,0.7423,1.3477
182,Charlottetown,Charlottetown,canada,YYG,CYYG,46.290001000000004,-63.121111,CAD,0.7423,1.3477
183,Taloyoak,Spence Bay,canada,YYH,CYYH,69.546667,-93.576667,CAD,0.7423,1.3477
184,Victoria Intl,Victoria,canada,YYJ,CYYJ,48.646944,-123.42583300000001,CAD,0.7423,1.3477
185,Lynn Lake,Lynn Lake,canada,YYL,CYYL,56.863888,-101.07611,CAD,0.7423,1.3477
186,Swift Current,Swift Current,canada,YYN,CYYN,50.291944,-107.690556,CAD,0.7423,1.3477
187,Churchill,Churchill,canada,YYQ,CYYQ,58.739167,-94.065,CAD,0.7423,1.3477
188,Goose Bay,Goose Bay,canada,YYR,CYYR,53.319168000000005,-60.425833,CAD,0.7423,1.3477
189,St Johns Intl,St. John's,canada,YYT,CYYT,47.61861,-52.75194499999999,CAD,0.7423,1.3477
190,Kapuskasing,Kapuskasing,canada,YYU,CYYU,49.413889000000005,-82.4675,CAD,0.7423,1.3477
191,Armstrong,Armstrong,canada,YYW,CYYW,50.290279,-88.90972099999999,CAD,0.7423,1.3477
192,Mont Joli,Mont Joli,canada,YYY,CYYY,48.608612,-68.208056,CAD,0.7423,1.3477
193,Lester B Pearson Intl,Toronto,canada,YYZ,CYYZ,43.677223,-79.630556,CAD,0.7423,1.3477
194,Downsview,Toronto,canada,YZD,CYZD,43.7425,-79.465556,CAD,0.7423,1.3477
195,Gore Bay Manitoulin,Gore Bay,canada,YZE,CYZE,45.885277,-82.567778,CAD,0.7423,1.3477
196,Yellowknife,Yellowknife,canada,YZF,CYZF,62.462778,-114.440278,CAD,0.7423,1.3477
197,Slave Lake,Slave Lake,canada,YZH,CYZH,55.29305600000001,-114.777222,CAD,0.7423,1.3477
198,Sandspit,Sandspit,canada,YZP,CYZP,53.254332999999995,-131.81383300000002,CAD,0.7423,1.3477
199,Chris Hadfield,Sarnia,canada,YZR,CYZR,42.999444,-82.30888900000001,CAD,0.7423,1.3477
200,Port Hardy,Port Hardy,canada,YZT,CYZT,50.680556,-127.36666699999999,CAD,0.7423,1.3477
201,Whitecourt,Whitecourt,canada,YZU,CYZU,54.14389,-115.786667,CAD,0.7423,1.3477
202,Sept Iles,Sept-iles,canada,YZV,CYZV,50.223333000000004,-66.265556,CAD,0.7423,1.3477
203,Teslin,Teslin,canada,YZW,CYZW,60.172779000000006,-132.74277800000002,CAD,0.7423,1.3477
204,Greenwood,Greenwood,canada,YZX,CYZX,44.984444,-64.916944,CAD,0.7423,1.3477
205,Faro,Faro,canada,ZFA,CZFA,62.2075,-133.375833,CAD,0.7423,1.3477
206,Fort Mcpherson,Fort Mcpherson,canada,ZFM,CZFM,67.4075,-134.860556,CAD,0.7423,1.3477
4094,Ekati,Ekati,canada,YOA,CYOA,64.69888900000001,-110.614722,CAD,0.7423,1.3477
4106,Victoria Inner Harbour Airport,Victoria,canada,YWH,CYWH,48.422778,-123.3875,CAD,0.7423,1.3477
4107,Vancouver Coal Harbour,Vancouver,canada,CXH,CAQ3,49.289722,-123.11583300000001,CAD,0.7423,1.3477
4236,Aklavik,Aklavik,canada,LAK,CYKD,68.223333,-135.005833,CAD,0.7423,1.3477
4237,Deline,Deline,canada,YWJ,CYWJ,65.1833333,-125.41666670000001,CAD,0.7423,1.3477
4238,Tulita,Tulita,canada,ZFN,CZFN,64.08333329999999,-125.58333329999999,CAD,0.7423,1.3477
4239,Fort Good Hope,Fort Good Hope,canada,YGH,CYGH,66.26666667,-128.65,CAD,0.7423,1.3477
4244,Paulatuk,Paulatuk,canada,YPC,CYPC,62.35,-124.3333,CAD,0.7423,1.3477
5551,Wollaston Lake Airport,Wollaston Lake,canada,ZWL,CZWL,58.1069,-103.17200000000001,CAD,0.7423,1.3477
5550,Churchill Falls Airport,Churchill Falls,canada,ZUM,CZUM,53.5619,-64.1064,CAD,0.7423,1.3477
5549,Shamattawa Airport,Shamattawa,canada,ZTM,CZTM,55.8656,-92.0814,CAD,0.7423,1.3477
5548,Sandy Lake Airport,Sandy Lake,canada,ZSJ,CZSJ,53.0642,-93.3444,CAD,0.7423,1.3477
5547,Round Lake (Weagamow Lake) Airport,Round Lake,canada,ZRJ,CZRJ,52.9436,-91.3128,CAD,0.7423,1.3477
5546,Sachigo Lake Airport,Sachigo Lake,canada,ZPB,CZPB,53.8911,-92.1964,CAD,0.7423,1.3477
5545,Masset Airport,Masset,canada,ZMT,CZMT,54.0275,-132.125,CAD,0.7423,1.3477
5544,Muskrat Dam Airport,Muskrat Dam,canada,MSA,CZMD,53.4414,-91.7628,CAD,0.7423,1.3477
5543,Kashechewan Airport,Kashechewan,canada,ZKE,CZKE,52.2825,-81.6778,CAD,0.7423,1.3477
5542,Swan River Airport,Swan River,canada,ZJN,CZJN,52.1206,-101.236,CAD,0.7423,1.3477
5541,Gods River Airport,Gods River,canada,ZGI,CZGI,54.8397,-94.0786,CAD,0.7423,1.3477
5540,Fond-Du-Lac Airport,Fond-Du-Lac,canada,ZFD,CZFD,59.3344,-107.182,CAD,0.7423,1.3477
5539,Eastmain River Airport,Eastmain River,canada,ZEM,CZEM,52.2264,-78.5225,CAD,0.7423,1.3477
5538,Bathurst Airport,Bathurst,canada,ZBF,CZBF,47.6297,-65.7389,CAD,0.7423,1.3477
5537,Ilford Airport,Ilford,canada,ILF,CZBD,56.0614,-95.6139,CAD,0.7423,1.3477
5536,York Landing Airport,York Landing,canada,ZAC,CZAC,56.0894,-96.0892,CAD,0.7423,1.3477
5535,Salluit Airport,Salluit,canada,YZG,CYZG,62.1794,-75.6672,CAD,0.7423,1.3477
5534,Whale Cove Airport,Whale Cove,canada,YXN,CYXN,62.24,-92.5981,CAD,0.7423,1.3477
5533,Webequie Airport,Webequie,canada,YWP,CYWP,52.9597,-87.3689,CAD,0.7423,1.3477
5532,Deer Lake Airport,Deer Lake,canada,YVZ,CYVZ,52.6558,-94.0614,CAD,0.7423,1.3477
5531,Big Trout Lake Airport,Big Trout Lake,canada,YTL,CYTL,53.8178,-89.8969,CAD,0.7423,1.3477
5530,St. Theresa Point Airport,St. Theresa Point,canada,YST,CYST,53.8456,-94.8519,CAD,0.7423,1.3477
5529,Sanikiluaq Airport,Sanikiluaq,canada,YSK,CYSK,56.5378,-79.2467,CAD,0.7423,1.3477
5528,Stony Rapids Airport,Stony Rapids,canada,YSF,CYSF,59.2503,-105.84100000000001,CAD,0.7423,1.3477
5527,Red Lake Airport,Red Lake,canada,YRL,CYRL,51.0669,-93.7931,CAD,0.7423,1.3477
5526,Rae Lakes Airport,Gamètì,canada,YRA,CYRA,64.1161,-117.31,CAD,0.7423,1.3477
5525,Nakina Airport,Nakina,canada,YQN,CYQN,50.182777,-86.696388,CAD,0.7423,1.3477
5524,The Pas Airport,The Pas,canada,YQD,CYQD,53.9714,-101.09100000000001,CAD,0.7423,1.3477
5523,Powell River Airport,Powell River,canada,YPW,CYPW,49.8342,-124.5,CAD,0.7423,1.3477
5522,Peawanuck Airport,Peawanuck,canada,YPO,CYPO,54.9881,-85.4433,CAD,0.7423,1.3477
5521,Pikangikum Airport,Pikangikum,canada,YPM,CYPM,51.8197,-93.9733,CAD,0.7423,1.3477
5520,Inukjuak Airport,Inukjuak,canada,YPH,CYPH,58.4719,-78.0769,CAD,0.7423,1.3477
5519,Oxford House Airport,Oxford House,canada,YOH,CYOH,54.9333,-95.2789,CAD,0.7423,1.3477
5518,Points North Landing Airport,Points North Landing,canada,YNL,CYNL,58.2767,-104.08200000000001,CAD,0.7423,1.3477
5517,Norway House Airport,Norway House,canada,YNE,CYNE,53.9583,-97.8442,CAD,0.7423,1.3477
5516,Wemindji Airport,Wemindji,canada,YNC,CYNC,53.0106,-78.8311,CAD,0.7423,1.3477
5515,Umiujaq Airport,Umiujaq,canada,YUD,CYMU,56.5361,-76.5183,CAD,0.7423,1.3477
5514,Chapais Airport,Chibougamau,canada,YMT,CYMT,49.7719,-74.5281,CAD,0.7423,1.3477
5513,Mary's Harbour Airport,Mary's Harbour,canada,YMH,CYMH,52.3028,-55.8472,CAD,0.7423,1.3477
5512,Kangiqsualujjuaq (Georges River) Airport,Kangiqsualujjuaq,canada,XGR,CYLU,58.7114,-65.9928,CAD,0.7423,1.3477
5511,Lutselk'e Airport,Lutselk'e,canada,YSG,CYLK,62.4183,-110.682,CAD,0.7423,1.3477
5510,Lansdowne House Airport,Lansdowne House,canada,YLH,CYLH,52.1956,-87.9342,CAD,0.7423,1.3477
5509,Kimmirut Airport,Kimmirut,canada,YLC,CYLC,62.85,-69.8833,CAD,0.7423,1.3477
5508,Aupaluk Airport,Aupaluk,canada,YPJ,CYLA,59.2967,-69.5997,CAD,0.7423,1.3477
5507,Waskaganish Airport,Waskaganish,canada,YKQ,CYKQ,51.4733,-78.7583,CAD,0.7423,1.3477
5506,Akulivik Airport,Akulivik,canada,AKV,CYKO,60.8186,-78.1486,CAD,0.7423,1.3477
5505,Island Lake Airport,Island Lake,canada,YIV,CYIV,53.8572,-94.6536,CAD,0.7423,1.3477
5504,Ivujivik Airport,Ivujivik,canada,YIK,CYIK,62.4173,-77.9253,CAD,0.7423,1.3477
5503,Chevery Airport,Chevery,canada,YHR,CYHR,50.4689,-59.6367,CAD,0.7423,1.3477
5502,Hopedale Airport,Hopedale,canada,YHO,CYHO,55.4483,-60.2286,CAD,0.7423,1.3477
5501,Nemiscau Airport,Nemiscau,canada,YNS,CYHH,51.6911,-76.1356,CAD,0.7423,1.3477
5500,Vancouver Harbour Water Airport,Vancouver,canada,YHC,CYHC,49.2944,-123.111,CAD,0.7423,1.3477
5499,Quaqtaq Airport,Quaqtaq,canada,YQC,CYHA,61.0464,-69.6178,CAD,0.7423,1.3477
5498,Grise Fiord Airport,Grise Fiord,canada,YGZ,CYGZ,76.4261,-82.9092,CAD,0.7423,1.3477
5497,Gillam Airport,Gillam,canada,YGX,CYGX,56.3575,-94.7106,CAD,0.7423,1.3477
5496,Kuujjuarapik Airport,Kuujjuarapik,canada,YGW,CYGW,55.2819,-77.7653,CAD,0.7423,1.3477
5495,Igloolik Airport,Igloolik,canada,YGT,CYGT,69.3647,-81.8161,CAD,0.7423,1.3477
5494,Gods Lake Narrows Airport,Gods Lake Narrows,canada,YGO,CYGO,54.5589,-94.4914,CAD,0.7423,1.3477
5493,Texada Gillies Bay Airport,Texada,canada,YGB,CYGB,49.6942,-124.51799999999999,CAD,0.7423,1.3477
5492,Makkovik Airport,Makkovik,canada,YMN,CYFT,55.0769,-59.1864,CAD,0.7423,1.3477
5491,Fort Hope Airport,Fort Hope,canada,YFH,CYFH,51.5619,-87.9078,CAD,0.7423,1.3477
5490,Fort Albany Airport,Fort Albany,canada,YFA,CYFA,52.2014,-81.6969,CAD,0.7423,1.3477
5489,Fort Severn Airport,Fort Severn,canada,YER,CYER,56.0189,-87.6761,CAD,0.7423,1.3477
5488,Nain Airport,Nain,canada,YDP,CYDP,56.5492,-61.6803,CAD,0.7423,1.3477
5487,Chesterfield Inlet Airport,Chesterfield Inlet,canada,YCS,CYCS,63.3469,-90.7311,CAD,0.7423,1.3477
5486,Cartwright Airport,Cartwright,canada,YRF,CYCA,53.6828,-57.0419,CAD,0.7423,1.3477
5485,Lourdes De Blanc Sablon Airport,Lourdes-De-Blanc-Sablon,canada,YBX,CYBX,51.4436,-57.1853,CAD,0.7423,1.3477
5484,Uranium City Airport,Uranium City,canada,YBE,CYBE,59.5614,-108.48100000000001,CAD,0.7423,1.3477
5482,Attawapiskat Airport,Attawapiskat,canada,YAT,CYAT,52.9275,-82.4319,CAD,0.7423,1.3477
5481,Kangirsuk Airport,Kangirsuk,canada,YKG,CYAS,60.0272,-69.9992,CAD,0.7423,1.3477
5480,Kasabonika Airport,Kasabonika,canada,XKS,CYAQ,53.5247,-88.6428,CAD,0.7423,1.3477
5479,Fort Frances Municipal Airport,Fort Frances,canada,YAG,CYAG,48.6542,-93.4397,CAD,0.7423,1.3477
5478,Cat Lake Airport,Cat Lake,canada,YAC,CYAC,51.7272,-91.8244,CAD,0.7423,1.3477
5474,La Tabatière Airport,La Tabatière,canada,ZLT,CTU5,50.8308,-58.9756,CAD,0.7423,1.3477
5473,Tête-à-la-Baleine Airport,Tête-à-la-Baleine,canada,ZTB,CTB6,50.6744,-59.3836,CAD,0.7423,1.3477
5472,Chisasibi Airport,Chisasibi,canada,YKU,CSU2,53.8056,-78.9169,CAD,0.7423,1.3477
5471,Poplar Hill Airport,Poplar Hill,canada,YHP,CPV7,52.1133,-94.2556,CAD,0.7423,1.3477
5470,Ogoki Post Airport,Ogoki Post,canada,YOG,CNT3,51.6586,-85.9017,CAD,0.7423,1.3477
5469,Kingfisher Lake Airport,Kingfisher Lake,canada,KIF,CNM5,53.0125,-89.8553,CAD,0.7423,1.3477
5468,Bearskin Lake Airport,Bearskin Lake,canada,XBE,CNE3,53.9656,-91.0272,CAD,0.7423,1.3477
5467,North Spirit Lake Airport,North Spirit Lake,canada,YNO,CKQ3,52.49,-92.9711,CAD,0.7423,1.3477
5466,Wunnumin Lake Airport,Wunnumin Lake,canada,WNN,CKL3,52.8939,-89.2892,CAD,0.7423,1.3477
5465,Wapekeka Airport,Angling Lake,canada,YAX,CKB6,53.8492,-89.5794,CAD,0.7423,1.3477
5464,Summer Beaver Airport,Summer Beaver,canada,SUR,CJV7,52.7086,-88.5419,CAD,0.7423,1.3477
5463,Whatì Airport,Whatì,canada,YLE,CEM3,63.1317,-117.24600000000001,CAD,0.7423,1.3477
5462,Colville Lake Airport,Colville Lake,canada,YCK,CEB3,67.0333,-126.083,CAD,0.7423,1.3477
5461,Rigolet Airport,Rigolet,canada,YRG,CCZ2,54.1797,-58.4575,CAD,0.7423,1.3477
5460,Port Hope Simpson Airport,Port Hope Simpson,canada,YHA,CCP4,52.5281,-56.2861,CAD,0.7423,1.3477
5459,St. Lewis (Fox Harbour) Airport,St. Lewis,canada,YFX,CCK4,52.3728,-55.6739,CAD,0.7423,1.3477
5458,Williams Harbour Airport,Williams Harbour,canada,YWM,CCA6,52.5669,-55.7847,CAD,0.7423,1.3477
5457,Anahim Lake Airport,Anahim Lake,canada,YAA,CAJ4,52.4525,-125.303,CAD,0.7423,1.3477
5456,Whistler/Green Lake Water Aerodrome,Whistler,canada,YWS,CAE5,50.1436,-122.949,CAD,0.7423,1.3477
6789,St Augustin Airport,St-Augustin,canada,YIF,CYIF,51.2117,-58.6583,CAD,0.7423,1.3477
6775,Bonaventure Airport,Bonaventure,canada,YVB,CYVB,48.0711,-65.4603,CAD,0.7423,1.3477
6738,Bella Coola Airport,Bella Coola,canada,QBC,CYBD,52.3875,-126.596,CAD,0.7423,1.3477
6728,Tasiujaq Airport,Tasiujaq,canada,YTQ,CYTQ,58.6678,-69.9558,CAD,0.7423,1.3477
6727,Puvirnituq Airport,Puvirnituq,canada,YPX,CYPX,60.0506,-77.2869,CAD,0.7423,1.3477
7012,Seal Cove Seaplane Base,Prince Rupert,canada,ZSW,CZSW,54.3333,-130.283,CAD,0.7423,1.3477
7022,Berens River,Berens River,canada,YBV,CYBV,52.358889000000005,-97.018333,CAD,0.7423,1.3477
7024,Seaplane Base,Port Simpson,canada,YPI,CYPI,54.566667,-130.433333,CAD,0.7423,1.3477
7060,Riviere Rouge - Mont-Tremblant International Inc. Airport,Mont-Tremblant,canada,YTM,CYFJ,46.409444,-74.78,CAD,0.7423,1.3477
7252,Postville Airport,Postville,canada,YSO,CCD4,54.910278000000005,-59.785278000000005,CAD,0.7423,1.3477
7253,Kangiqsujuaq - Wakeham Bay Airport,Kangiqsujuaq,canada,YWB,CYKG,61.588611,-71.92944399999999,CAD,0.7423,1.3477
7254,Alma Airport,Alma,canada,YTF,CYTF,48.508611,-71.641389,CAD,0.7423,1.3477
7255,Havre Saint-Pierre Airport,Havre-Saint-Pierre,canada,YGV,CYGV,50.281944,-63.611389,CAD,0.7423,1.3477
7256,Rimouski Airport,Rimouski,canada,YXK,CYXK,48.478056,-68.496944,CAD,0.7423,1.3477
7259,Tadoule Lake Airport,Tadoule Lake,canada,XTL,CYBQ,58.706111,-98.512222,CAD,0.7423,1.3477
7260,Lac Brochet Airport,Lac Brochet,canada,XLB,CZWH,58.614167,-101.468889,CAD,0.7423,1.3477
7261,South Indian Lake Airport,South Indian Lake,canada,XSI,CZSN,56.792778000000006,-98.90722199999999,CAD,0.7423,1.3477
7262,Brochet Airport,Brochet,canada,YBT,CYBT,57.889444,-101.679167,CAD,0.7423,1.3477
7263,Little Grand Rapids Airport,Little Grand Rapids,canada,ZGR,CZGR,52.045,-95.466111,CAD,0.7423,1.3477
7264,Cross Lake - Charlie Sinclair Memorial Airport,Cross Lake,canada,YCR,CYCR,54.61083299999999,-97.760278,CAD,0.7423,1.3477
7265,Red Sucker Lake Airport,Red Sucker Lake,canada,YRS,CYRS,54.167221999999995,-93.557222,CAD,0.7423,1.3477
7266,Rainbow Lake Airport,Rainbow Lake,canada,YOP,CYOP,58.491389,-119.40777800000001,CAD,0.7423,1.3477
7267,Bonnyville Airport,Bonnyville,canada,YBY,CYBF,54.304722,-110.741111,CAD,0.7423,1.3477
7268,Nanaimo Harbour Water Airport,Nanaimo,canada,ZNA,CAC8,49.183333000000005,-123.95,CAD,0.7423,1.3477
7271,Qualicum Beach Airport,Qualicum Beach,canada,XQU,\N,49.337222,-124.39388899999999,CAD,0.7423,1.3477
7272,Fort St. James - Perison Airport,Fort St. James,canada,YJM,CYJM,54.397222,-124.262778,CAD,0.7423,1.3477
7273,Boundary Bay Airport,Boundary Bay,canada,YDT,CZBB,49.073889,-123.0075,CAD,0.7423,1.3477
7275,Bella Bella Airport,Bella Bella,canada,ZEL,CYJQ,52.139722,-128.063611,CAD,0.7423,1.3477
7276,Sechelt Aerodrome,Sechelt-Gibsons,canada,YHS,\N,49.460556,-123.71861100000001,CAD,0.7423,1.3477
7462,Central Railway Station,Montreal,canada,YMY,\N,45.499722,-73.56611099999999,CAD,0.7423,1.3477
7463,Union Station,Toronto,canada,YBZ,\N,43.645278000000005,-79.380556,CAD,0.7423,1.3477
7521,Yarmouth Airport,Yarmouth,canada,YQI,CYQI,43.8269,-66.0881,CAD,0.7423,1.3477
7902,Oshawa Airport,Oshawa,canada,YOO,CYOO,43.9228,-78.895,CAD,0.7423,1.3477
7968,Train Station,Ottawa,canada,XDS,\N,45.4164,-75.6517,CAD,0.7423,1.3477
7969,Train Station,Belleville,canada,XVV,\N,44.1793,-77.3747,CAD,0.7423,1.3477
7970,Train Station,Edmonton,canada,XZL,\N,53.5789,-113.5307,CAD,0.7423,1.3477
7973,Train Station,Churchill,canada,XAD,\N,58.76775,-94.17425,CAD,0.7423,1.3477
7974,Train Station,Winnipeg,canada,XEF,\N,49.8889,-97.1342,CAD,0.7423,1.3477
7987,Mackenzie Airport,Mackenzie British Columbia,canada,YZY,CYZY,55.299440000000004,-123.08333,CAD,0.7423,1.3477
8031,Calgary Springbank Airport,Calgary,canada,YBW,CYBW,51.1031,-114.374,CAD,0.7423,1.3477
8032,Golden Airport,Golden,canada,YGE,CYGE,51.2992,-116.98200000000001,CAD,0.7423,1.3477
8033,Revelstoke Airport,Revelstoke,canada,YRV,CYRV,50.9667,-118.18299999999999,CAD,0.7423,1.3477
8071,Kingston Train Station,Kingston,canada,XEG,KGST,44.256944,-76.53694300000001,CAD,0.7423,1.3477
8072,Dorval Railway Station,Dorval,canada,XAX,\N,45.448611,-73.74110999999999,CAD,0.7423,1.3477
8147,Pembroke Airport,Pembroke,canada,YTA,CYTA,45.864399,-77.251701,CAD,0.7423,1.3477
8149,Suffield Heliport,Suffield,canada,YSD,CYSD,50.2666701,-111.182999,CAD,0.7423,1.3477
8175,Big Bay Water Aerodrome,Big Bay,canada,YRR,\N,50.4,-125.13333300000001,CAD,0.7423,1.3477
8177,Cornwall Regional Airport,Cornwall,canada,YCC,CYCC,45.092778,-74.567778,CAD,0.7423,1.3477
8217,Kegaska Airport,Kegaska,canada,ZKG,CTK6,50.195833,-61.26583299999999,CAD,0.7423,1.3477
8218,Black Tickle Airport,Black Tickle,canada,YBI,CCE4,53.47,-55.7875,CAD,0.7423,1.3477
8223,Trail Airport,Trail,canada,YZZ,CAD4,49.055556,-117.609167,CAD,0.7423,1.3477
8225,Arctic Bay Airport,Arctic Bay,canada,YAB,CJX7,73.006389,-85.04722199999999,CAD,0.7423,1.3477
8355,Keewaywin,Keewaywin,canada,KEW,CPV8,52.991111,-92.836389,CAD,0.7423,1.3477
8356,Marathon,Marathon,canada,YSP,CYSP,48.755278000000004,-86.344444,CAD,0.7423,1.3477
8357,Rene Fontaine,Hearst,canada,YHF,CYHF,49.713889,-83.686944,CAD,0.7423,1.3477
8358,Hornepayne,Hornepayne,canada,YHN,CYHN,49.193056,-84.758889,CAD,0.7423,1.3477
8359,Kirkland Lake,Kirkland Lake,canada,YKX,CYKX,48.210278,-79.98138900000001,CAD,0.7423,1.3477
8360,Manitouwadge,Manitouwadge,canada,YMG,CYMG,49.083889,-85.860556,CAD,0.7423,1.3477
8361,Wawa,Wawa,canada,YXZ,CYXZ,47.966944,-84.786389,CAD,0.7423,1.3477
8362,Manitoulin East,Manitowaning,canada,YEM,CYEM,45.8425,-81.8575,CAD,0.7423,1.3477
8365,Brantford,Brantford,canada,YFD,CYFD,43.131389,-80.3425,CAD,0.7423,1.3477
8404,South Cariboo Regional Airport,108 Mile Ranch,canada,ZML,CZML,51.4412,-121.1958,CAD,0.7423,1.3477
8423,Gimli Industrial Park Airport,Gimli,canada,YGM,CYGM,50.628056,-97.04333299999999,CAD,0.7423,1.3477
8477,Bob Quinn Lake,Bob Quinn Lake,canada,YBO,CBW4,56.58,-130.5,CAD,0.7423,1.3477
8598,All Airports,Montreal,canada,YMQ,\N,45.508611,-73.553889,CAD,0.7423,1.3477
8599,All Airports,Toronto,canada,YTO,\N,43.653056,-79.38305600000001,CAD,0.7423,1.3477
8663,Trois Rivieres Airport,Trois Rivieres,canada,YRQ,CYRQ,46.351667,-72.68055600000001,CAD,0.7423,1.3477
8697,Bogande Airport,Bogande,canada,XBG,\N,48.329498,-70.99569699999999,CAD,0.7423,1.3477
8963,Bromont Airport,Bromont,canada,ZBM,CZBM,45.290833,-72.74194399999999,CAD,0.7423,1.3477
8904,Albian Aerodrome,Wood Buffalo,canada,JHL,\N,57.223889,-111.418889,CAD,0.7423,1.3477
9084,Fort McMurray - Mildred Lake Airport,Fort McMurray,canada,NML,\N,57.055599,-111.57399699999999,CAD,0.7423,1.3477
9088,Cochrane,Cochrane,canada,YCN,CYCN,49.106667,-81.01527800000001,CAD,0.7423,1.3477
9236,Lake Simcoe,Barrie-Orillia,canada,YLS,CYLS,44.487778000000006,-79.559444,CAD,0.7423,1.3477
9237,Huronia,Midland,canada,YEE,CYEE,44.684722,-79.929167,CAD,0.7423,1.3477
9238,Markham,Markham,canada,NU8,CNU8,43.935278000000004,-79.26333299999999,CAD,0.7423,1.3477
9239,Stanhope,Haliburton,canada,ND4,CND4,45.110833,-78.64,CAD,0.7423,1.3477
9240,Lindsay,Lindsay,canada,NF4,CNF4,44.364722,-78.783889,CAD,0.7423,1.3477
9241,Niagara District,Saint Catherines,canada,YCM,CYSN,43.191666999999995,-79.171111,CAD,0.7423,1.3477
9246,Kent,Chatham,canada,XCM,CNZ3,42.306111,-82.08166700000001,CAD,0.7423,1.3477
9247,Parry Sound,Parry Sound,canada,YPD,CNK4,45.253889,-79.82777800000001,CAD,0.7423,1.3477
9535,Ganges Water Aerodrome,Ganges,canada,YGG,\N,48.85,-123.5,CAD,0.7423,1.3477
9536,Pender Harbour Water Aerodrome,Pender Harbour,canada,YPT,\N,49.616667,-124.016667,CAD,0.7423,1.3477
9537,Mansons Landing Water Aerodrome,Mansons Landing,canada,YMU,\N,50.066666999999995,-124.983333,CAD,0.7423,1.3477
9538,Port McNeill Airport,Port McNeill,canada,YMP,\N,50.575556,-127.02861100000001,CAD,0.7423,1.3477
9539,Sullivan Bay Water Aerodrome,Sullivan Bay,canada,YTG,\N,50.883333,-126.83333300000001,CAD,0.7423,1.3477
1102,Amilcar Cabral Intl,Amilcar Cabral,cape verde,SID,GVAC,16.741389,-22.949444,CVE,0.009068999999999999,110.265
1103,Rabil,Boa Vista,cape verde,BVC,GVBA,16.136531,-22.888897,CVE,0.009068999999999999,110.265
1104,Maio,Maio,cape verde,MMO,GVMA,15.155928,-23.213703,CVE,0.009068999999999999,110.265
1105,Preguica,Sao Nocolau Island,cape verde,SNE,GVSN,16.588356,-24.284656,CVE,0.009068999999999999,110.265
1106,Sao Pedro,Sao Vicente Island,cape verde,VXE,GVSV,16.833689,-25.054661,CVE,0.009068999999999999,110.265
5675,Sao Filipe Airport,"Sao Filipe, Fogo Island",cape verde,SFL,GVSF,14.885,-24.48,CVE,0.009068999999999999,110.265
5674,Praia International Airport,"Praia, Santiago Island",cape verde,RAI,GVNP,14.9245,-23.4935,CVE,0.009068999999999999,110.265
1925,Gerrard Smith Intl,Cayman Barac,cayman islands,CYB,MWCB,19.686981,-79.882789,KYD,1.1553,0.9058
1926,Owen Roberts Intl,Georgetown,cayman islands,GCM,MWCR,19.292778,-81.35775,KYD,1.1553,0.9058
4314,Edward Bodden Airfield,Little Cayman,cayman islands,LYB,MWCL,19.65916667,-80.09083333,KYD,1.1553,0.9058
888,Bangui M Poko,Bangui,central african republic,BGF,FEFF,4.398475,18.518786,XAF,0.001524,655.957
889,Berberati,Berberati,central african republic,BBT,FEFT,4.221583,15.786369,XAF,0.001524,655.957
4210,Gounda Airport,Gounda,central african republic,GDA,\N,9.272222,21.197222,XAF,0.001524,655.957
997,Abeche,Abeche,chad,AEH,FTTC,13.847000000000001,20.844333,XAF,0.001524,655.957
998,Moundou,Moundou,chad,MQQ,FTTD,8.624406,16.071419,XAF,0.001524,655.957
999,Ndjamena Hassan Djamous,N'djamena,chad,NDJ,FTTJ,12.133689,15.034019,XAF,0.001524,655.957
1000,Faya Largeau,Faya-largeau,chad,FYT,FTTY,17.917053,19.111078,XAF,0.001524,655.957
5639,Sarh Airport,Sarh,chad,SRH,FTTA,9.14444,18.3744,XAF,0.001524,655.957
7413,Am Timan Airport,Am Timan,chad,AMC,FTTN,11.034,20.274,XAF,0.001524,655.957
2641,Chacalluta,Arica,chile,ARI,SCAR,-18.348531,-70.33874200000001,CLP,0.001484,674.679
2642,Balmaceda,Balmaceda,chile,BBA,SCBA,-45.916058,-71.689475,CLP,0.001484,674.679
2644,Chile Chico,Chile Chico,chile,CCH,SCCC,-46.583341,-71.687405,CLP,0.001484,674.679
2645,El Loa,Calama,chile,CJC,SCCF,-22.498175,-68.903575,CLP,0.001484,674.679
2647,Carlos Ibanez Del Campo Intl,Punta Arenas,chile,PUQ,SCCI,-53.002642,-70.854586,CLP,0.001484,674.679
2648,Teniente Vidal,Coyhaique,chile,GXQ,SCCY,-45.594211,-72.106133,CLP,0.001484,674.679
2649,Diego Aracena Intl,Iquique,chile,IQQ,SCDA,-20.535222,-70.181275,CLP,0.001484,674.679
2650,Arturo Merino Benitez Intl,Santiago,chile,SCL,SCEL,-33.392975,-70.785803,CLP,0.001484,674.679
2651,Cerro Moreno Intl,Antofagasta,chile,ANF,SCFA,-23.444478,-70.4451,CLP,0.001484,674.679
2654,Maria Dolores,Los Angeles,chile,LSQ,SCGE,-37.401731,-72.425444,CLP,0.001484,674.679
2656,Carriel Sur Intl,Concepcion,chile,CCP,SCIE,-36.77265,-73.063106,CLP,0.001484,674.679
2657,Mataveri Intl,Easter Island,chile,IPC,SCIP,-27.164792,-109.42183100000001,CLP,0.001484,674.679
2658,Canal Bajo Carlos Hott Siebert,Osorno,chile,ZOS,SCJO,-40.611208000000005,-73.061042,CLP,0.001484,674.679
2662,La Florida,La Serena,chile,LSC,SCSE,-29.916233000000002,-71.199522,CLP,0.001484,674.679
2664,Maquehue,Temuco,chile,ZCO,SCTC,-38.766819,-72.637097,CLP,0.001484,674.679
2665,El Tepual Intl,Puerto Montt,chile,PMC,SCTE,-41.438886,-73.093953,CLP,0.001484,674.679
2666,Chaiten,Chaiten,chile,WCH,SCTN,-42.932808,-72.699114,CLP,0.001484,674.679
2667,Pichoy,Valdivia,chile,ZAL,SCVD,-39.649956,-73.086111,CLP,0.001484,674.679
4312,Copiapo,Copiapo,chile,CPO,SCHA,-27.0,-70.0,CLP,0.001484,674.679
6043,Pucón Airport,Pucon,chile,ZPC,SCPC,-39.2928,-71.9159,CLP,0.001484,674.679
6042,Ricardo García Posada Airport,El Salvador,chile,ESR,SCES,-26.3111,-69.7652,CLP,0.001484,674.679
7226,Puerto Natales,Puerto Natales,chile,PNT,SCNT,-51.733333,-72.516667,CLP,0.001484,674.679
7460,Aeropuerto Capitan Fuentes Martinez,Porvenir,chile,WPR,\N,-53.2537,-70.31922800000001,CLP,0.001484,674.679
7832,Guardiamarina Zanartu Airport,Puerto Williams,chile,WPU,\N,-54.9311,-67.6263,CLP,0.001484,674.679
3364,Capital Intl,Beijing,china,PEK,ZBAA,40.080110999999995,116.584556,CNY,0.1545,6.4987
3366,Dongshan,Hailar,china,HLD,ZBLA,49.204997,119.825,CNY,0.1545,6.4987
3368,Binhai,Tianjin,china,TSN,ZBTJ,39.124353,117.34618300000001,CNY,0.1545,6.4987
3369,Wusu,Taiyuan,china,TYN,ZBYN,37.746897,112.628428,CNY,0.1545,6.4987
3370,Baiyun Intl,Guangzhou,china,CAN,ZGGG,23.392436,113.298786,CNY,0.1545,6.4987
3371,Huanghua,Changcha,china,CSX,ZGHA,28.189158000000003,113.219633,CNY,0.1545,6.4987
3372,Liangjiang,Guilin,china,KWL,ZGKL,25.218106,110.039197,CNY,0.1545,6.4987
3373,Wuxu,Nanning,china,NNG,ZGNN,22.608267,108.17244199999999,CNY,0.1545,6.4987
3374,Baoan Intl,Shenzhen,china,SZX,ZGSZ,22.639257999999998,113.81066399999999,CNY,0.1545,6.4987
3375,Xinzheng,Zhengzhou,china,CGO,ZHCC,34.519672,113.84088899999999,CNY,0.1545,6.4987
3376,Tianhe,Wuhan,china,WUH,ZHHH,30.783758000000002,114.2081,CNY,0.1545,6.4987
3378,Zhongchuan,Lanzhou,china,ZGC,ZLLL,36.515242,103.620775,CNY,0.1545,6.4987
3379,Xianyang,Xi'an,china,XIY,ZLXY,34.447119,108.75159199999999,CNY,0.1545,6.4987
3382,Wujiaba,Kunming,china,KMG,ZPPP,24.992364000000002,102.74353599999999,CNY,0.1545,6.4987
3383,Gaoqi,Xiamen,china,XMN,ZSAM,24.544036,118.12773899999999,CNY,0.1545,6.4987
3384,Changbei Intl,Nanchang,china,KHN,ZSCN,28.865,115.9,CNY,0.1545,6.4987
3385,Changle,Fuzhou,china,FOC,ZSFZ,25.935064,119.66327199999999,CNY,0.1545,6.4987
